"","fips_st","fips_place","city","state","latitude","longitude"
"1",1,460,"Adamsville","AL",33.595542,-86.957993
"2",1,484,"Addison","AL",34.19994,-87.177921
"3",1,676,"Akron","AL",32.876118,-87.738779
"4",1,820,"Alabaster","AL",33.226547,-86.82462
"5",1,988,"Albertville","AL",34.262453,-86.209414
"6",1,1132,"Alexander City","AL",32.927015,-85.934009
"7",1,1228,"Aliceville","AL",33.125078,-88.157999
"8",1,1396,"Allgood","AL",33.90643,-86.518044
"9",1,1660,"Altoona","AL",34.031381,-86.313552
"10",1,1708,"Andalusia","AL",31.307638,-86.48144
"11",1,1756,"Anderson","AL",34.91351,-87.270552
"12",1,1852,"Anniston","AL",33.66265,-85.813937
"13",1,2116,"Arab","AL",34.329635,-86.500127
"14",1,2260,"Ardmore","AL",34.98336,-86.836627
"15",1,2320,"Argo","AL",33.686661,-86.51003
"16",1,2428,"Ariton","AL",31.598373,-85.715372
"17",1,2500,"Arley","AL",34.084983,-87.210631
"18",1,2836,"Ashford","AL",31.185801,-85.234603
"19",1,2860,"Ashland","AL",33.270967,-85.8307
"20",1,2908,"Ashville","AL",33.834691,-86.264011
"21",1,2956,"Athens","AL",34.786009,-86.959899
"22",1,3004,"Atmore","AL",31.021694,-87.495438
"23",1,3028,"Attalla","AL",34.009983,-86.101863
"24",1,3076,"Auburn","AL",32.5929,-85.480322
"25",1,3220,"Autaugaville","AL",32.430993,-86.655798
"26",1,3364,"Avon","AL",31.180293,-85.276624
"27",1,3556,"Babbie","AL",31.300292,-86.31934
"28",1,3676,"Baileyton","AL",34.262079,-86.613498
"29",1,3940,"Banks","AL",31.814278,-85.838337
"30",1,4660,"Bay Minette","AL",30.880776,-87.776975
"31",1,4684,"Bayou La Batre","AL",30.403663,-88.250086
"32",1,4852,"Bear Creek","AL",34.260539,-87.715574
"33",1,4900,"Beatrice","AL",31.733754,-87.209042
"34",1,4948,"Beaverton","AL",33.93433,-88.021408
"35",1,5164,"Belk","AL",33.648083,-87.927732
"36",1,5692,"Benton","AL",32.307439,-86.817579
"37",1,5932,"Berry","AL",33.663185,-87.607693
"38",1,5980,"Bessemer","AL",33.375236,-86.960601
"39",1,6460,"Billingsley","AL",32.660336,-86.708534
"40",1,7000,"Birmingham","AL",33.527746,-86.799223
"41",1,7120,"Black","AL",31.009386,-85.74321
"42",1,7456,"Blountsville","AL",34.080871,-86.588414
"43",1,7552,"Blue Mountain","AL",33.688517,-85.837612
"44",1,7588,"Blue Ridge","AL",32.492484,-86.190617
"45",1,7672,"Blue Springs","AL",31.660501,-85.503092
"46",1,7912,"Boaz","AL",34.202618,-86.155491
"47",1,8104,"Boligee","AL",32.753,-88.024254
"48",1,8248,"Bon Air","AL",33.261319,-86.338052
"49",1,8920,"Branchville","AL",33.66112,-86.427038
"50",1,9016,"Brantley","AL",31.581672,-86.256677
"51",1,9136,"Brent","AL",32.942269,-87.176219
"52",1,9208,"Brewton","AL",31.114611,-87.072837
"53",1,9328,"Bridgeport","AL",34.944425,-85.719003
"54",1,9400,"Brighton","AL",33.43885,-86.945474
"55",1,9424,"Brilliant","AL",34.016723,-87.77581
"56",1,9736,"Brookside","AL",33.631931,-86.914741
"57",1,9808,"Brookwood","AL",33.247178,-87.323908
"58",1,10240,"Brundidge","AL",31.718862,-85.815274
"59",1,11032,"Butler","AL",32.093844,-88.216721
"60",1,11128,"Bynum","AL",33.605546,-85.957464
"61",1,11248,"Cahaba Heights","AL",33.4596,-86.728199
"62",1,11416,"Calera","AL",33.101269,-86.753675
"63",1,11512,"Camden","AL",32.002958,-87.298274
"64",1,11680,"Camp Hill","AL",32.800119,-85.653335
"65",1,12016,"Carbon Hill","AL",33.895817,-87.525037
"66",1,12040,"Cardiff","AL",33.646128,-86.92896
"67",1,12160,"Carolina","AL",31.231348,-86.52065
"68",1,12304,"Carrollton","AL",33.261794,-88.095124
"69",1,12496,"Castleberry","AL",31.29978,-87.028508
"70",1,12760,"Cedar Bluff","AL",34.220512,-85.596037
"71",1,13264,"Center Point","AL",33.643133,-86.678764
"72",1,13648,"Centre","AL",34.153021,-85.671733
"73",1,13672,"Centreville","AL",32.95889,-87.132713
"74",1,14008,"Chatom","AL",31.469889,-88.25378
"75",1,14104,"Chelsea","AL",33.326283,-86.637432
"76",1,14152,"Cherokee","AL",34.756365,-87.966692
"77",1,14392,"Chickasaw","AL",30.77255,-88.084086
"78",1,14464,"Childersburg","AL",33.279405,-86.353329
"79",1,15064,"Citronelle","AL",31.096088,-88.249861
"80",1,15136,"Clanton","AL",32.840013,-86.624704
"81",1,15304,"Clayhatchee","AL",31.23757,-85.712745
"82",1,15376,"Clayton","AL",31.880663,-85.451167
"83",1,15472,"Cleveland","AL",33.994936,-86.570521
"84",1,15640,"Clio","AL",31.709276,-85.610549
"85",1,16240,"Coffee Springs","AL",31.166567,-85.909898
"86",1,16264,"Coffeeville","AL",31.764206,-88.088292
"87",1,16600,"Collinsville","AL",34.266551,-85.863044
"88",1,16684,"Colony","AL",33.941382,-86.901185
"89",1,16744,"Columbia","AL",31.297227,-85.109066
"90",1,16768,"Columbiana","AL",33.177005,-86.600822
"91",1,17176,"Coosada","AL",32.495833,-86.330192
"92",1,17368,"Cordova","AL",33.76065,-87.192757
"93",1,17824,"Cottonwood","AL",31.055584,-85.301372
"94",1,17968,"County Line","AL",33.820967,-86.722833
"95",1,17992,"County Line","AL",31.284426,-86.200746
"96",1,18040,"Courtland","AL",34.668861,-87.316645
"97",1,18088,"Cowarts","AL",31.199398,-85.30634
"98",1,18304,"Creola","AL",30.8969,-88.009802
"99",1,18856,"Crossville","AL",34.286278,-85.993551
"100",1,18952,"Cuba","AL",32.440602,-88.374257
"101",1,18976,"Cullman","AL",34.176059,-86.838934
"102",1,19336,"Dadeville","AL",32.831922,-85.765204
"103",1,19360,"Daleville","AL",31.300833,-85.716212
"104",1,19648,"Daphne","AL",30.626933,-87.897286
"105",1,19744,"Dauphin Island","AL",30.249243,-88.172996
"106",1,19816,"Daviston","AL",33.05513,-85.639208
"107",1,19912,"Dayton","AL",32.351726,-87.642865
"108",1,20104,"Decatur","AL",34.571833,-86.988166
"109",1,20296,"Demopolis","AL",32.500546,-87.83417
"110",1,20392,"Detroit","AL",34.026203,-88.168793
"111",1,21136,"Dora","AL",33.731426,-87.083205
"112",1,21184,"Dothan","AL",31.23595,-85.405299
"113",1,21280,"Double Springs","AL",34.148362,-87.403137
"114",1,21328,"Douglas","AL",34.171471,-86.321247
"115",1,21448,"Dozier","AL",31.503627,-86.37166
"116",1,21952,"Dutton","AL",34.607554,-85.915588
"117",1,22216,"East Brewton","AL",31.09058,-87.05531
"118",1,22816,"Eclectic","AL",32.636763,-86.03474
"119",1,23176,"Edwardsville","AL",33.706678,-85.509838
"120",1,23296,"Elba","AL",31.417151,-86.075176
"121",1,23320,"Elberta","AL",30.413442,-87.60079
"122",1,23344,"Eldridge","AL",33.921959,-87.619773
"123",1,23488,"Elkmont","AL",34.928429,-86.975875
"124",1,23872,"Emelle","AL",32.728537,-88.315248
"125",1,24184,"Enterprise","AL",31.329809,-85.846454
"126",1,24256,"Epes","AL",32.691719,-88.125964
"127",1,24472,"Ethelsville","AL",33.414193,-88.216261
"128",1,24568,"Eufaula","AL",31.909278,-85.150353
"129",1,24616,"Eunola","AL",31.038587,-85.845481
"130",1,24664,"Eutaw","AL",32.840605,-87.89148
"131",1,24688,"Eva","AL",34.330415,-86.755855
"132",1,24808,"Evergreen","AL",31.437392,-86.955023
"133",1,24880,"Excel","AL",31.426167,-87.342419
"134",1,25120,"Fairfield","AL",33.473,-86.917717
"135",1,25240,"Fairhope","AL",30.514468,-87.884052
"136",1,25384,"Fairview","AL",34.24679,-86.687441
"137",1,25648,"Falkville","AL",34.376935,-86.90972
"138",1,25816,"Faunsdale","AL",32.459085,-87.593247
"139",1,25840,"Fayette","AL",33.694009,-87.831361
"140",1,26200,"Five Points","AL",33.017066,-85.351261
"141",1,26800,"Flint City","AL",34.5155,-86.972787
"142",1,26824,"Flomaton","AL",31.016388,-87.254564
"143",1,26848,"Florala","AL",31.021113,-86.308454
"144",1,26896,"Florence","AL",34.82785,-87.665057
"145",1,26992,"Foley","AL",30.405662,-87.684233
"146",1,27088,"Forestdale","AL",33.57925,-86.902874
"147",1,27376,"Forkland","AL",32.647569,-87.867223
"148",1,27520,"Fort Deposit","AL",31.985854,-86.576236
"149",1,27544,"Fort McClellan","AL",33.718825,-85.79072
"150",1,27616,"Fort Payne","AL",34.453792,-85.69444
"151",1,27640,"Fort Rucker","AL",31.343401,-85.715143
"152",1,28024,"Franklin","AL",32.45525,-85.80279
"153",1,28312,"Frisco City","AL",31.434326,-87.403563
"154",1,28432,"Fruithurst","AL",33.730255,-85.43186
"155",1,28504,"Fulton","AL",31.793557,-87.741064
"156",1,28552,"Fultondale","AL",33.617286,-86.80009
"157",1,28672,"Fyffe","AL",34.45098,-85.906355
"158",1,28696,"Gadsden","AL",34.01,-86.014405
"159",1,28768,"Gainesville","AL",32.815274,-88.159585
"160",1,28936,"Gantt","AL",31.408724,-86.484638
"161",1,28984,"Gantts Quarry","AL",33.148196,-86.299365
"162",1,29032,"Garden City","AL",34.014782,-86.750077
"163",1,29056,"Gardendale","AL",33.665221,-86.800561
"164",1,29296,"Gaylesville","AL",34.267902,-85.558283
"165",1,29392,"Geiger","AL",32.873693,-88.313368
"166",1,29464,"Geneva","AL",31.036639,-85.876779
"167",1,29560,"Georgiana","AL",31.636437,-86.74243
"168",1,29608,"Geraldine","AL",34.360848,-86.002983
"169",1,29704,"Gilbertown","AL",31.875678,-88.31878
"170",1,29944,"Glen Allen","AL",33.884827,-87.744118
"171",1,29992,"Glencoe","AL",33.946233,-85.931225
"172",1,30160,"Glenwood","AL",31.666077,-86.172433
"173",1,30448,"Goldville","AL",33.083497,-85.784431
"174",1,30496,"Good Hope","AL",34.110133,-86.864567
"175",1,30640,"Goodwater","AL",33.060438,-86.051507
"176",1,30736,"Gordo","AL",33.321344,-87.903711
"177",1,30760,"Gordon","AL",31.145641,-85.09435
"178",1,30880,"Goshen","AL",31.719558,-86.125906
"179",1,31024,"Grand Bay","AL",30.471944,-88.344293
"180",1,31096,"Grant","AL",34.517212,-86.25227
"181",1,31384,"Graysville","AL",33.6264,-86.969199
"182",1,31720,"Greensboro","AL",32.700618,-87.594062
"183",1,31912,"Greenville","AL",31.829719,-86.626699
"184",1,32056,"Grimes","AL",31.302097,-85.451108
"185",1,32080,"Grove Hill","AL",31.703793,-87.777428
"186",1,32224,"Guin","AL",33.96609,-87.910549
"187",1,32272,"Gulf Shores","AL",30.270036,-87.70146
"188",1,32416,"Guntersville","AL",34.356757,-86.270409
"189",1,32440,"Gurley","AL",34.703145,-86.373057
"190",1,32536,"Gu-Win","AL",33.958234,-87.871663
"191",1,32560,"Hackleburg","AL",34.274181,-87.833697
"192",1,32656,"Haleburg","AL",31.410858,-85.138674
"193",1,32704,"Haleyville","AL",34.238792,-87.618201
"194",1,32848,"Hamilton","AL",34.140314,-87.982764
"195",1,32896,"Hammondville","AL",34.56933,-85.638339
"196",1,32968,"Hanceville","AL",34.064911,-86.763469
"197",1,33256,"Harpersville","AL",33.341799,-86.432691
"198",1,33424,"Hartford","AL",31.105115,-85.691343
"199",1,33448,"Hartselle","AL",34.436916,-86.939815
"200",1,33472,"Harvest","AL",34.855619,-86.749894
"201",1,33640,"Hayden","AL",33.895328,-86.754358
"202",1,33712,"Hayneville","AL",32.182473,-86.578835
"203",1,33808,"Hazel Green","AL",34.923624,-86.567213
"204",1,33856,"Headland","AL",31.351932,-85.343253
"205",1,33904,"Heath","AL",31.355101,-86.466878
"206",1,33976,"Heflin","AL",33.646285,-85.586732
"207",1,34024,"Helena","AL",33.289736,-86.852423
"208",1,34096,"Henagar","AL",34.633923,-85.737447
"209",1,34480,"Highland Lake","AL",33.889234,-86.423815
"210",1,34816,"Hillsboro","AL",34.636721,-87.184584
"211",1,35152,"Hobson City","AL",33.617033,-85.851727
"212",1,35200,"Hodges","AL",34.327387,-87.926532
"213",1,35392,"Hokes Bluff","AL",33.98965,-85.86297
"214",1,35560,"Holly Pond","AL",34.174561,-86.617011
"215",1,35632,"Hollywood","AL",34.716877,-85.965711
"216",1,35704,"Holt","AL",33.22955,-87.480949
"217",1,35800,"Homewood","AL",33.4648,-86.806999
"218",1,35896,"Hoover","AL",33.375332,-86.819037
"219",1,36448,"Hueytown","AL",33.4376,-86.997586
"220",1,36592,"Huguley","AL",32.843119,-85.240673
"221",1,37000,"Huntsville","AL",34.707048,-86.627723
"222",1,37096,"Hurtsboro","AL",32.239942,-85.414371
"223",1,37312,"Ider","AL",34.700676,-85.666937
"224",1,37756,"Inverness","AL",33.404139,-86.722944
"225",1,37864,"Irondale","AL",33.532317,-86.676303
"226",1,38152,"Jackson","AL",31.53254,-87.893012
"227",1,38248,"Jacksons' Gap","AL",32.884143,-85.816998
"228",1,38272,"Jacksonville","AL",33.81065,-85.760774
"229",1,38416,"Jasper","AL",33.852042,-87.270067
"230",1,38608,"Jemison","AL",32.964998,-86.744068
"231",1,39280,"Kansas","AL",33.901778,-87.553343
"232",1,39520,"Kennedy","AL",33.581421,-87.985506
"233",1,39784,"Killen","AL",34.861501,-87.529349
"234",1,39856,"Kimberly","AL",33.768213,-86.804802
"235",1,40072,"Kinsey","AL",31.297409,-85.335936
"236",1,40096,"Kinston","AL",31.219426,-86.169941
"237",1,40648,"Ladonia","AL",32.462379,-85.086805
"238",1,40672,"Lafayette","AL",32.899542,-85.400846
"239",1,40806,"Lake Purdy","AL",33.429931,-86.680504
"240",1,40888,"Lakeview","AL",34.392209,-85.97327
"241",1,41296,"Lanett","AL",32.866205,-85.205117
"242",1,41368,"Langston","AL",34.534187,-86.092361
"243",1,41968,"Leeds","AL",33.545976,-86.562745
"244",1,42016,"Leesburg","AL",34.178976,-85.769101
"245",1,42160,"Leighton","AL",34.699553,-87.530673
"246",1,42352,"Lester","AL",34.984221,-87.147896
"247",1,42472,"Level Plains","AL",31.306357,-85.766718
"248",1,42640,"Lexington","AL",34.966032,-87.372872
"249",1,42808,"Libertyville","AL",31.243672,-86.460007
"250",1,43120,"Lincoln","AL",33.59801,-86.139391
"251",1,43240,"Linden","AL",32.301011,-87.792706
"252",1,43264,"Lineville","AL",33.312421,-85.752616
"253",1,43336,"Lipscomb","AL",33.4261,-86.925422
"254",1,43384,"Lisman","AL",32.169306,-88.288072
"255",1,43648,"Littleville","AL",34.595005,-87.674038
"256",1,43720,"Livingston","AL",32.59881,-88.187144
"257",1,43744,"Loachapoka","AL",32.604706,-85.596938
"258",1,43816,"Lockhart","AL",31.012731,-86.350243
"259",1,43888,"Locust Fork","AL",33.90265,-86.621682
"260",1,44344,"Louisville","AL",31.781088,-85.558042
"261",1,44536,"Lowndesboro","AL",32.276737,-86.610257
"262",1,44608,"Loxley","AL",30.627129,-87.756379
"263",1,44728,"Luverne","AL",31.707854,-86.261088
"264",1,44800,"Lynn","AL",34.043769,-87.546695
"265",1,45472,"McIntosh","AL",31.264812,-88.027882
"266",1,45496,"McKenzie","AL",31.543754,-86.716532
"267",1,45640,"McMullen","AL",33.147105,-88.176123
"268",1,45784,"Madison","AL",34.702904,-86.749679
"269",1,45904,"Madrid","AL",31.035769,-85.397282
"270",1,46264,"Malvern","AL",31.135872,-85.51944
"271",1,46504,"Maplesville","AL",32.785716,-86.878395
"272",1,46696,"Margaret","AL",33.687702,-86.47466
"273",1,46768,"Marion","AL",32.631553,-87.317598
"274",1,47728,"Maytown","AL",33.551128,-86.995717
"275",1,47740,"Meadowbrook","AL",33.401928,-86.696801
"276",1,48052,"Memphis","AL",33.138332,-88.301314
"277",1,48064,"Mentone","AL",34.568309,-85.582702
"278",1,48112,"Meridianville","AL",34.87376,-86.570935
"279",1,48376,"Midfield","AL",33.4541,-86.922808
"280",1,48400,"Midland City","AL",31.316275,-85.493382
"281",1,48424,"Midway","AL",32.074296,-85.520286
"282",1,48616,"Mignon","AL",33.194043,-86.264008
"283",1,48712,"Millbrook","AL",32.4946,-86.367721
"284",1,48808,"Millport","AL",33.559467,-88.081194
"285",1,48832,"Millry","AL",31.625865,-88.316669
"286",1,49072,"Minor","AL",33.5253,-86.947612
"287",1,50000,"Mobile","AL",30.67745,-88.088959
"288",1,50192,"Monroeville","AL",31.516885,-87.327813
"289",1,50312,"Montevallo","AL",33.109251,-86.851224
"290",1,51000,"Montgomery","AL",32.3544,-86.284287
"291",1,51096,"Moody","AL",33.596934,-86.494628
"292",1,51216,"Moores Mill","AL",34.851888,-86.525755
"293",1,51264,"Mooresville","AL",34.626832,-86.879986
"294",1,51456,"Morris","AL",33.749733,-86.80534
"295",1,51520,"Mosses","AL",32.176151,-86.674589
"296",1,51600,"Moulton","AL",34.483899,-87.281139
"297",1,51648,"Moundville","AL",32.995882,-87.63066
"298",1,51672,"Mountainboro","AL",34.14771,-86.131208
"299",1,51696,"Mountain Brook","AL",33.486867,-86.740477
"300",1,52608,"Mount Vernon","AL",31.091175,-88.011747
"301",1,52776,"Mulga","AL",33.546587,-86.975349
"302",1,53016,"Muscle Shoals","AL",34.747117,-87.642039
"303",1,53112,"Myrtlewood","AL",32.247111,-87.947127
"304",1,53256,"Napier Field","AL",31.315115,-85.455306
"305",1,53400,"Nauvoo","AL",33.988466,-87.4878
"306",1,53448,"Nectar","AL",33.969026,-86.636264
"307",1,53472,"Needham","AL",31.986189,-88.338772
"308",1,53784,"Newbern","AL",32.591251,-87.535972
"309",1,53856,"New Brockton","AL",31.38097,-85.924398
"310",1,54168,"New Hope","AL",34.53914,-86.415896
"311",1,54312,"New Market","AL",34.909465,-86.425117
"312",1,54432,"New Site","AL",33.035225,-85.775012
"313",1,54480,"Newton","AL",31.339126,-85.588578
"314",1,54600,"Newville","AL",31.42167,-85.3365
"315",1,55044,"North Courtland","AL",34.677186,-87.308365
"316",1,55152,"North Johns","AL",33.368112,-87.10154
"317",1,55200,"Northport","AL",33.244111,-87.592149
"318",1,55440,"Notasulga","AL",32.557554,-85.672449
"319",1,55752,"Oak Grove","AL",33.186178,-86.302855
"320",1,55848,"Oak Hill","AL",31.922139,-87.088129
"321",1,55992,"Oakman","AL",33.712982,-87.38847
"322",1,56400,"Odenville","AL",33.686021,-86.39837
"323",1,56472,"Ohatchee","AL",33.784483,-86.01872
"324",1,57000,"Oneonta","AL",33.951165,-86.470595
"325",1,57024,"Onycha","AL",31.224328,-86.279091
"326",1,57048,"Opelika","AL",32.6542,-85.378805
"327",1,57120,"Opp","AL",31.291399,-86.255997
"328",1,57144,"Orange Beach","AL",30.284442,-87.590994
"329",1,57240,"Orrville","AL",32.30832,-87.245408
"330",1,57504,"Owens Crossroads","AL",34.582017,-86.460163
"331",1,57576,"Oxford","AL",33.59703,-85.825836
"332",1,57648,"Ozark","AL",31.439127,-85.648755
"333",1,57696,"Paint Rock","AL",34.660576,-86.328777
"334",1,58272,"Parrish","AL",33.733833,-87.280708
"335",1,58848,"Pelham","AL",33.30328,-86.794051
"336",1,58896,"Pell City","AL",33.560168,-86.272437
"337",1,58968,"Pennington","AL",32.196798,-88.052363
"338",1,59328,"Petrey","AL",31.849064,-86.20727
"339",1,59472,"Phenix City","AL",32.465509,-85.01461
"340",1,59496,"Phil Campbell","AL",34.352028,-87.70581
"341",1,59592,"Pickensville","AL",33.226646,-88.265574
"342",1,59640,"Piedmont","AL",33.927382,-85.615204
"343",1,59832,"Pinckard","AL",31.320588,-85.544246
"344",1,59880,"Pine Apple","AL",31.873728,-86.987682
"345",1,60240,"Pine Hill","AL",31.985636,-87.582518
"346",1,60372,"Pine Ridge","AL",34.44439,-85.779667
"347",1,60636,"Pinson-Clay-Chalkville CD","AL",33.676696,-86.658635
"348",1,60720,"Pisgah","AL",34.682152,-85.847759
"349",1,61008,"Pleasant Grove","AL",33.489168,-86.975939
"350",1,61488,"Point Clear","AL",30.489634,-87.904391
"351",1,61536,"Pollard","AL",31.022531,-87.17243
"352",1,62088,"Powell","AL",34.530771,-85.895102
"353",1,62328,"Prattville","AL",32.4617,-86.446691
"354",1,62472,"Priceville","AL",34.524219,-86.885583
"355",1,62496,"Prichard","AL",30.7731,-88.130673
"356",1,62688,"Providence","AL",32.344452,-87.772103
"357",1,63216,"Ragland","AL",33.748065,-86.136302
"358",1,63288,"Rainbow City","AL",33.92975,-86.087374
"359",1,63336,"Rainsville","AL",34.498776,-85.844933
"360",1,63408,"Ranburne","AL",33.524874,-85.340155
"361",1,63576,"Red Bay","AL",34.436126,-88.136336
"362",1,63768,"Red Level","AL",31.404179,-86.608199
"363",1,63912,"Redstone Arsenal","AL",34.684075,-86.654036
"364",1,63984,"Reece City","AL",34.072433,-86.032368
"365",1,64104,"Reform","AL",33.379561,-88.016697
"366",1,64368,"Repton","AL",31.408806,-87.239761
"367",1,64656,"Ridgeville","AL",34.057014,-86.103258
"368",1,64776,"River Falls","AL",31.350363,-86.541895
"369",1,64920,"Riverside","AL",33.611281,-86.207701
"370",1,65016,"Riverview","AL",31.058462,-87.05672
"371",1,65040,"Roanoke","AL",33.145335,-85.369345
"372",1,65208,"Robertsdale","AL",30.552139,-87.707803
"373",1,65472,"Rockford","AL",32.887588,-86.217227
"374",1,66216,"Rogersville","AL",34.826241,-87.284514
"375",1,66408,"Rosa","AL",33.98454,-86.508688
"376",1,67056,"Russellville","AL",34.505909,-87.729164
"377",1,67176,"Rutledge","AL",31.729032,-86.301687
"378",1,67536,"St. Florian","AL",34.86565,-87.623827
"379",1,67608,"Saks","AL",33.71129,-85.85376
"380",1,67800,"Samson","AL",31.11221,-86.046604
"381",1,67920,"Sand Rock","AL",34.232126,-85.770626
"382",1,68016,"Sanford","AL",31.297556,-86.401696
"383",1,68160,"Saraland","AL",30.820093,-88.098927
"384",1,68280,"Sardis City","AL",34.176717,-86.113538
"385",1,68352,"Satsuma","AL",30.8541,-88.061099
"386",1,68736,"Scottsboro","AL",34.649346,-86.047376
"387",1,69000,"Section","AL",34.581,-85.983823
"388",1,69120,"Selma","AL",32.416084,-87.032952
"389",1,69180,"Selmont-West Selmont","AL",32.378357,-87.006673
"390",1,69648,"Sheffield","AL",34.75525,-87.701261
"391",1,69840,"Shiloh","AL",34.465468,-85.877339
"392",1,70128,"Shorter","AL",32.400754,-85.936607
"393",1,70416,"Silas","AL",31.769209,-88.320906
"394",1,70536,"Silverhill","AL",30.545174,-87.749023
"395",1,70704,"Sipsey","AL",33.822068,-87.083053
"396",1,70896,"Skyline","AL",34.802861,-86.123512
"397",1,71040,"Slocomb","AL",31.110254,-85.594335
"398",1,71136,"Smiths","AL",32.539794,-85.087215
"399",1,71201,"Smoke Rise","AL",33.879865,-86.824469
"400",1,71280,"Snead","AL",34.115874,-86.391528
"401",1,71496,"Somerville","AL",34.474706,-86.801372
"402",1,71832,"Southside","AL",33.903767,-86.021986
"403",1,71900,"South Vinemont","AL",34.23614,-86.862592
"404",1,71976,"Spanish Fort","AL",30.675242,-87.884589
"405",1,72600,"Springville","AL",33.773623,-86.475147
"406",1,72888,"Steele","AL",33.934,-86.197259
"407",1,73080,"Stevenson","AL",34.870608,-85.833098
"408",1,73728,"Sulligent","AL",33.8947,-88.131888
"409",1,73848,"Sumiton","AL",33.753076,-87.048167
"410",1,73872,"Summerdale","AL",30.483286,-87.700361
"411",1,74160,"Susan Moore","AL",34.074059,-86.429739
"412",1,74304,"Sweet Water","AL",32.10169,-87.867328
"413",1,74352,"Sylacauga","AL",33.175958,-86.261318
"414",1,74400,"Sylvania","AL",34.55979,-85.80757
"415",1,74424,"Sylvan Springs","AL",33.512896,-87.030561
"416",1,74592,"Talladega","AL",33.432048,-86.098001
"417",1,74616,"Talladega Springs","AL",33.117523,-86.444543
"418",1,74688,"Tallassee","AL",32.53516,-85.891439
"419",1,75000,"Tarrant","AL",33.5937,-86.767888
"420",1,75096,"Taylor","AL",31.164467,-85.46758
"421",1,75768,"Theodore","AL",30.545539,-88.176647
"422",1,75936,"Thomaston","AL",32.268081,-87.62361
"423",1,75960,"Thomasville","AL",31.912389,-87.741895
"424",1,76080,"Thorsby","AL",32.914998,-86.714133
"425",1,76320,"Tillmans Corner","AL",30.585517,-88.19134
"426",1,76584,"Town Creek","AL",34.672665,-87.408315
"427",1,76632,"Toxey","AL",31.910129,-88.30805
"428",1,76680,"Trafford","AL",33.823647,-86.746489
"429",1,76824,"Triana","AL",34.594573,-86.744271
"430",1,76872,"Trinity","AL",34.598597,-87.089825
"431",1,76920,"Troy","AL",31.804118,-85.968163
"432",1,76944,"Trussville","AL",33.635929,-86.593213
"433",1,77256,"Tuscaloosa","AL",33.2377,-87.540979
"434",1,77280,"Tuscumbia","AL",34.728667,-87.705652
"435",1,77304,"Tuskegee","AL",32.437748,-85.711143
"436",1,77580,"Underwood-Petersville","AL",34.876969,-87.69601
"437",1,77616,"Union","AL",32.993425,-87.9055
"438",1,77784,"Union Grove","AL",34.399996,-86.446062
"439",1,77880,"Union Springs","AL",32.138811,-85.71366
"440",1,77904,"Uniontown","AL",32.447029,-87.508459
"441",1,78204,"Valley","AL",32.809037,-85.173016
"442",1,78240,"Valley Head","AL",34.550803,-85.625819
"443",1,78264,"Vance","AL",33.170926,-87.227909
"444",1,78480,"Vernon","AL",33.75833,-88.113754
"445",1,78552,"Vestavia Hills","AL",33.433567,-86.787559
"446",1,78984,"Vina","AL",34.374267,-88.056546
"447",1,79008,"Vincent","AL",33.38561,-86.40994
"448",1,79272,"Vredenburgh","AL",31.823284,-87.317533
"449",1,79344,"Wadley","AL",33.123346,-85.568594
"450",1,79488,"Waldo","AL",33.390871,-86.035391
"451",1,79728,"Walnut Grove","AL",34.064583,-86.287287
"452",1,79944,"Warrior","AL",33.813913,-86.808203
"453",1,80064,"Waterloo","AL",34.916709,-88.064174
"454",1,80256,"Waverly","AL",32.736134,-85.57615
"455",1,80352,"Weaver","AL",33.7556,-85.808576
"456",1,80376,"Webb","AL",31.256622,-85.285645
"457",1,80496,"Wedowee","AL",33.308498,-85.486532
"458",1,80928,"West Blocton","AL",33.118109,-87.125824
"459",1,81084,"West End-Cobb Town","AL",33.648156,-85.871219
"460",1,81336,"West Jefferson","AL",33.648736,-87.067931
"461",1,81480,"Weston","AL",34.162189,-88.030852
"462",1,81528,"West Point","AL",34.238096,-86.948206
"463",1,81720,"Wetumpka","AL",32.544192,-86.201761
"464",1,81912,"White Hall","AL",32.300783,-86.714537
"465",1,82752,"Wilmer","AL",30.825683,-88.359191
"466",1,82848,"Wilsonville","AL",33.236035,-86.479006
"467",1,82872,"Wilton","AL",33.082152,-86.881057
"468",1,82992,"Winfield","AL",33.929853,-87.796085
"469",1,83400,"Woodland","AL",33.374083,-85.39927
"470",1,83664,"Woodville","AL",34.625248,-86.282166
"471",1,83976,"Yellow Bluff","AL",31.959773,-87.482179
"472",1,84096,"York","AL",32.495962,-88.296126
"473",2,320,"Adak Station","AK",51.8429,-176.640278
"474",2,650,"Akhiok","AK",56.97732,-154.217551
"475",2,760,"Akiachak","AK",60.87174,-161.403575
"476",2,870,"Akiak","AK",60.885659,-161.192264
"477",2,1090,"Akutan","AK",54.136299,-165.786036
"478",2,1200,"Alakanuk","AK",62.675611,-164.643602
"479",2,1360,"Alcan","AK",62.722977,-141.188178
"480",2,1420,"Aleknagik","AK",59.285485,-158.628962
"481",2,1860,"Allakaket","AK",66.54517,-152.733117
"482",2,1970,"Ambler","AK",67.076879,-157.918155
"483",2,2025,"Amchitka","AK",51.567103,-178.87738
"484",2,2080,"Anaktuvuk Pass","AK",68.115875,-151.679549
"485",2,3000,"Anchorage","AK",61.178368,-149.186416
"486",2,3110,"Anchor Point","AK",59.770667,-151.813064
"487",2,3220,"Anderson","AK",64.306512,-149.159654
"488",2,3440,"Angoon","AK",57.478409,-134.520029
"489",2,3550,"Aniak","AK",61.580742,-159.539124
"490",2,3660,"Annette","AK",55.042123,-131.585763
"491",2,3880,"Anvik","AK",62.655538,-160.2083
"492",2,3990,"Arctic Village","AK",68.125245,-145.526906
"493",2,4210,"Atka","AK",52.242218,-174.205154
"494",2,4430,"Atmautluak","AK",60.85428,-162.269012
"495",2,4500,"Atqasuk","AK",70.465827,-157.408634
"496",2,5200,"Barrow","AK",71.268264,-156.806271
"497",2,5750,"Beaver","AK",66.334203,-147.314663
"498",2,6520,"Bethel","AK",60.768211,-161.772218
"499",2,6630,"Bettles","AK",66.886581,-151.594416
"500",2,6850,"Big Delta","AK",64.139919,-145.762114
"501",2,7070,"Big Lake","AK",61.521423,-149.954399
"502",2,7620,"Birch Creek","AK",66.245449,-145.830269
"503",2,8740,"Brevig Mission","AK",65.335095,-166.480947
"504",2,9600,"Buckland","AK",65.981052,-161.131676
"505",2,9710,"Butte","AK",61.542467,-149.051667
"506",2,10150,"Cantwell","AK",63.371603,-148.920201
"507",2,11690,"Central","AK",65.555829,-144.857823
"508",2,11800,"Chalkyitsik","AK",66.63802,-143.755047
"509",2,12350,"Chase","AK",62.449074,-150.101756
"510",2,12680,"Chefornak","AK",60.153746,-164.210294
"511",2,12970,"Chenega","AK",60.104792,-147.943689
"512",2,13230,"Chevak","AK",61.53349,-165.591558
"513",2,13340,"Chickaloon","AK",61.79505,-148.480527
"514",2,13550,"Chignik","AK",56.301639,-158.415696
"515",2,13670,"Chignik Lagoon","AK",56.284127,-158.511127
"516",2,13780,"Chignik Lake","AK",56.256133,-158.772221
"517",2,13860,"Chiniak","AK",57.631863,-152.182537
"518",2,14000,"Chistochina","AK",62.564429,-144.687193
"519",2,14110,"Chitina","AK",61.524841,-144.489121
"520",2,14330,"Chuathbaluk","AK",61.573195,-159.21641
"521",2,14880,"Circle","AK",65.824542,-144.08262
"522",2,14990,"Circle Hot Springs Statio","AK",65.470349,-144.689132
"523",2,15320,"Clam Gulch","AK",60.224674,-151.402133
"524",2,15450,"Clarks Point","AK",58.845722,-158.515717
"525",2,16360,"Coffman Cove","AK",56.008167,-132.83906
"526",2,16420,"Cohoe","AK",60.316683,-151.564388
"527",2,16530,"Cold Bay","AK",55.225026,-162.738879
"528",2,16750,"College","AK",64.869541,-147.823404
"529",2,17190,"Cooper Landing","AK",60.491092,-149.792268
"530",2,17300,"Copper Center","AK",61.980756,-145.351126
"531",2,17380,"Copperville","AK",62.043925,-145.420658
"532",2,17410,"Cordova","AK",60.547773,-145.747605
"533",2,17670,"Covenant Life","AK",59.417228,-136.025127
"534",2,17740,"Craig","AK",55.4828,-133.123153
"535",2,17850,"Crooked Creek","AK",61.876909,-158.077845
"536",2,17960,"Crown Point","AK",60.42253,-149.337543
"537",2,18030,"Cube Cove","AK",57.935095,-134.711234
"538",2,18290,"Deadhorse","AK",70.205556,-148.511648
"539",2,18510,"Deering","AK",66.0736,-162.731743
"540",2,18620,"Delta Junction","AK",64.063687,-145.708158
"541",2,18950,"Dillingham","AK",59.062164,-158.527978
"542",2,19060,"Diomede","AK",65.774678,-168.915363
"543",2,19660,"Dora Bay","AK",55.188991,-132.295196
"544",2,19720,"Dot Lake","AK",63.629122,-144.09512
"545",2,20020,"Dry Creek","AK",63.653404,-144.665296
"546",2,20380,"Eagle","AK",64.778147,-141.200633
"547",2,20600,"Eagle Village","AK",64.790425,-141.1091
"548",2,20970,"Edna Bay","AK",55.95393,-133.650728
"549",2,21040,"Eek","AK",60.21889,-162.026425
"550",2,21150,"Egegik","AK",58.228738,-157.3927
"551",2,21370,"Eielson AFB","AK",64.675713,-147.091316
"552",2,21810,"Ekwok","AK",59.360217,-157.479396
"553",2,22140,"Elfin Cove","AK",58.186247,-136.336831
"554",2,22250,"Elim","AK",64.621662,-162.260371
"555",2,22910,"Emmonak","AK",62.778339,-164.537199
"556",2,23130,"English Bay","AK",59.346854,-151.903489
"557",2,23460,"Ester","AK",64.861264,-148.024538
"558",2,23790,"Evansville","AK",66.878557,-151.45967
"559",2,24010,"Eyak","AK",60.528455,-145.592556
"560",2,24230,"Fairbanks","AK",64.837088,-147.649045
"561",2,24670,"False Pass","AK",54.841028,-163.436845
"562",2,25220,"Ferry","AK",63.927883,-149.130232
"563",2,26100,"Fort Greely","AK",63.958664,-145.756094
"564",2,26760,"Fort Yukon","AK",66.564951,-145.261831
"565",2,26870,"Fox","AK",64.960744,-147.621258
"566",2,26910,"Fox River","AK",59.858323,-150.958233
"567",2,26950,"Freshwater Bay","AK",57.891643,-135.079348
"568",2,27090,"Fritz Creek","AK",59.736089,-151.295346
"569",2,27420,"Gakona","AK",62.292729,-145.309498
"570",2,27530,"Galena","AK",64.740772,-156.819862
"571",2,27640,"Gambell","AK",63.776555,-171.701685
"572",2,27700,"Game Creek","AK",58.056687,-135.50789
"573",2,28740,"Glennallen","AK",62.084862,-145.60352
"574",2,29180,"Golovin","AK",64.578979,-162.990887
"575",2,29290,"Goodnews Bay","AK",59.109807,-161.565292
"576",2,30060,"Grayling","AK",62.899503,-160.107398
"577",2,30500,"Gulkana","AK",62.252675,-145.399049
"578",2,30940,"Gustavus","AK",58.40609,-135.801088
"579",2,31050,"Haines","AK",59.24025,-135.440405
"580",2,31270,"Halibut Cove","AK",59.587217,-151.237659
"581",2,31710,"Happy Valley","AK",59.947278,-151.732222
"582",2,31820,"Harding Lake","AK",64.421798,-146.850712
"583",2,32150,"Healy","AK",63.811541,-149.002048
"584",2,32310,"Healy Lake","AK",63.97701,-144.724097
"585",2,32550,"Hobart Bay","AK",57.465822,-133.353254
"586",2,32810,"Hollis","AK",55.556697,-132.636312
"587",2,33030,"Holy Cross","AK",62.181376,-159.799406
"588",2,33140,"Homer","AK",59.635463,-151.522165
"589",2,33360,"Hoonah","AK",58.111547,-135.419779
"590",2,33470,"Hooper Bay","AK",61.539757,-166.103051
"591",2,33580,"Hope","AK",60.897173,-149.631634
"592",2,33800,"Houston","AK",61.624142,-149.781057
"593",2,33910,"Hughes","AK",66.037086,-154.26774
"594",2,34350,"Huslia","AK",65.689918,-156.291976
"595",2,34460,"Hydaburg","AK",55.208959,-132.817389
"596",2,34570,"Hyder","AK",55.980417,-130.058689
"597",2,34790,"Igiugig","AK",59.335135,-155.907214
"598",2,35120,"Iliamna","AK",59.775077,-154.867589
"599",2,35890,"Ivanof Bay","AK",55.960836,-159.489478
"600",2,35950,"Jakolof Bay","AK",59.446922,-151.510399
"601",2,36400,"Juneau","AK",58.388588,-134.133421
"602",2,36550,"Kachemak","AK",59.674003,-151.431041
"603",2,36770,"Kake","AK",56.968536,-133.924976
"604",2,36990,"Kaktovik","AK",70.049178,-143.637027
"605",2,37240,"Kalifonsky","AK",60.410079,-151.27977
"606",2,37430,"Kaltag","AK",64.338617,-158.686168
"607",2,37540,"Karluk","AK",57.586064,-154.395295
"608",2,37650,"Kasaan","AK",55.546697,-132.404122
"609",2,37975,"Kasigluk","AK",60.888999,-162.545653
"610",2,38090,"Kasilof","AK",60.332904,-151.229949
"611",2,38420,"Kenai","AK",60.553745,-151.207416
"612",2,38910,"Kenny Lake","AK",61.719264,-144.948272
"613",2,38970,"Ketchikan","AK",55.352515,-131.659582
"614",2,39300,"Kiana","AK",66.970152,-160.45816
"615",2,39410,"King Cove","AK",55.058571,-162.299822
"616",2,39630,"King Salmon","AK",58.742922,-156.544639
"617",2,39740,"Kipnuk","AK",59.923204,-164.101013
"618",2,39960,"Kivalina","AK",67.72248,-164.533081
"619",2,40400,"Klawock","AK",55.553792,-133.091015
"620",2,40510,"Klukwan","AK",59.403875,-135.884494
"621",2,40620,"Knik","AK",61.453293,-149.741617
"622",2,40840,"Kobuk","AK",66.904607,-156.896358
"623",2,40950,"Kodiak","AK",57.798532,-152.402265
"624",2,41170,"Kodiak Station","AK",57.762943,-152.526856
"625",2,41270,"Kokhanok","AK",59.407512,-154.744169
"626",2,41500,"Koliganek","AK",59.736123,-157.266331
"627",2,41610,"Kongiganak","AK",59.923976,-162.851942
"628",2,41720,"Kotlik","AK",63.034125,-163.554705
"629",2,41830,"Kotzebue","AK",66.888023,-162.535388
"630",2,41940,"Koyuk","AK",64.93285,-161.148348
"631",2,42050,"Koyukuk","AK",64.913529,-157.650652
"632",2,42160,"Kupreanof","AK",56.808948,-132.985238
"633",2,42380,"Kwethluk","AK",60.771814,-161.38849
"634",2,42490,"Kwigillingok","AK",59.835882,-163.113734
"635",2,42730,"Labouchere Bay","AK",56.296341,-133.632253
"636",2,42820,"Lake Minchumina","AK",63.874443,-152.412786
"637",2,43040,"Larsen Bay","AK",57.558681,-154.019734
"638",2,43260,"Lazy Mountain","AK",61.626178,-148.945657
"639",2,43810,"Levelock","AK",59.108594,-156.885009
"640",2,43830,"Lignite","AK",63.890511,-149.04641
"641",2,44030,"Lime Village","AK",61.432815,-155.472526
"642",2,44920,"Long Island","AK",54.91706,-132.679279
"643",2,45460,"Lower Kalskag","AK",61.51876,-160.349905
"644",2,45700,"Lutak","AK",59.341066,-135.565509
"645",2,45790,"McCarthy","AK",61.423206,-142.898032
"646",2,46010,"McGrath","AK",62.954315,-155.575753
"647",2,46560,"McKinley Park","AK",63.696655,-148.954823
"648",2,46780,"Manley Hot Springs","AK",64.985763,-150.636587
"649",2,46890,"Manokotak","AK",59.009559,-158.989699
"650",2,47000,"Marshall","AK",61.875343,-162.060098
"651",2,47735,"Meadow Lakes","AK",61.624594,-149.60123
"652",2,47990,"Mekoryuk","AK",60.365679,-166.283583
"653",2,48200,"Mendeltna","AK",62.066243,-146.449867
"654",2,48540,"Mentasta Lake","AK",62.851791,-143.760878
"655",2,48870,"Metlakatla","AK",55.124552,-131.580632
"656",2,48980,"Meyers Chuck","AK",55.714925,-132.222972
"657",2,49530,"Minto","AK",65.026198,-149.529566
"658",2,50080,"Moose Creek","AK",64.713723,-147.16518
"659",2,50190,"Moose Pass","AK",60.467277,-149.388376
"660",2,50300,"Mosquito Lake","AK",59.52925,-136.090978
"661",2,51180,"Mountain Village","AK",62.087808,-163.716689
"662",2,52060,"Naknek","AK",58.760722,-156.901849
"663",2,52390,"Napakiak","AK",60.676886,-161.978696
"664",2,52720,"Napaskiak","AK",60.663758,-161.738144
"665",2,52845,"Naukati Bay","AK",55.873675,-133.18476
"666",2,52940,"Nelson Lagoon","AK",55.920749,-161.18903
"667",2,53050,"Nenana","AK",64.543954,-149.086694
"668",2,53270,"Newhalen","AK",59.734437,-154.880083
"669",2,53710,"New Stuyahok","AK",59.473183,-157.262024
"670",2,53820,"Newtok","AK",60.949358,-164.644051
"671",2,53930,"Nightmute","AK",60.448283,-164.804066
"672",2,54050,"Nikiski","AK",60.725224,-151.382747
"673",2,54085,"Nikolaevsk","AK",59.83234,-151.589226
"674",2,54150,"Nikolai","AK",62.995238,-154.390664
"675",2,54260,"Nikolski","AK",52.9613,-168.822061
"676",2,54480,"Ninilchik","AK",60.073494,-151.631301
"677",2,54700,"Noatak","AK",67.582831,-163.005221
"678",2,54920,"Nome","AK",64.509225,-165.415193
"679",2,55030,"Nondalton","AK",59.990396,-154.853101
"680",2,55140,"Noorvik","AK",66.828619,-161.042607
"681",2,55910,"North Pole","AK",64.753195,-147.355951
"682",2,56240,"Northway","AK",62.932888,-141.874895
"683",2,56250,"Northway Junction","AK",63.002092,-141.777345
"684",2,56260,"Northway Village","AK",62.977401,-141.903572
"685",2,56320,"Nuiqsut","AK",70.191531,-150.9946
"686",2,56350,"Nulato","AK",64.707622,-158.223607
"687",2,56680,"Nunapitchuk","AK",60.879145,-162.452467
"688",2,57340,"Old Harbor","AK",57.245032,-153.373587
"689",2,58330,"Oscarville","AK",60.69665,-161.759205
"690",2,58550,"Ouzinkie","AK",57.935175,-152.458165
"691",2,58660,"Palmer","AK",61.598923,-149.109874
"692",2,59320,"Paxson","AK",63.089858,-145.612966
"693",2,59540,"Pedro Bay","AK",59.790507,-154.136625
"694",2,59650,"Pelican","AK",57.953164,-136.209853
"695",2,60200,"Perryville","AK",55.958639,-159.226086
"696",2,60310,"Petersburg","AK",56.773998,-132.861623
"697",2,60640,"Pilot Point","AK",57.619308,-157.459012
"698",2,60750,"Pilot Station","AK",61.941425,-162.875852
"699",2,60860,"Pitkas Point","AK",62.03126,-163.269979
"700",2,61080,"Platinum","AK",58.973944,-161.725226
"701",2,61120,"Pleasant Valley","AK",64.881333,-146.868546
"702",2,61190,"Point Baker","AK",56.35471,-133.62364
"703",2,61630,"Point Hope","AK",68.311254,-166.727131
"704",2,61700,"Point Lay","AK",69.711136,-163.00889
"705",2,61940,"Polk Inlet","AK",55.349703,-132.545879
"706",2,62510,"Port Alexander","AK",56.218086,-134.63099
"707",2,62550,"Port Alice","AK",55.826492,-133.60283
"708",2,62620,"Port Alsworth","AK",60.2095,-154.304037
"709",2,63170,"Port Clarence","AK",65.066264,-166.824454
"710",2,63280,"Port Graham","AK",59.348525,-151.837369
"711",2,63390,"Port Heiden","AK",56.955113,-158.587784
"712",2,63610,"Port Lions","AK",57.89076,-152.858909
"713",2,63870,"Port Protection","AK",56.317143,-133.598063
"714",2,64240,"Primrose","AK",60.378301,-149.322824
"715",2,64380,"Prudhoe Bay","AK",70.284047,-148.376162
"716",2,64600,"Quinhagak","AK",59.739381,-161.872373
"717",2,64820,"Rampart","AK",65.383627,-150.011201
"718",2,64930,"Red Devil","AK",61.790327,-157.347864
"719",2,65345,"Ridgeway","AK",60.53203,-151.085226
"720",2,65520,"Rowan Bay","AK",56.653931,-134.251244
"721",2,65590,"Ruby","AK",64.71757,-155.520662
"722",2,65700,"Russian Mission","AK",61.794502,-161.353793
"723",2,65800,"St. George","AK",56.614741,-169.594616
"724",2,65980,"St. John Harbor","AK",56.43968,-132.963605
"725",2,66140,"St. Mary's","AK",62.046064,-163.246256
"726",2,66360,"St. Michael","AK",63.47759,-162.109141
"727",2,66470,"St. Paul","AK",57.210529,-170.218936
"728",2,66510,"Salamatof","AK",60.615924,-151.337406
"729",2,66550,"Salcha","AK",64.469257,-146.94149
"730",2,67020,"Sand Point","AK",55.319459,-160.491183
"731",2,67460,"Savoonga","AK",63.679737,-170.470908
"732",2,67570,"Saxman","AK",55.324617,-131.592159
"733",2,67680,"Scammon Bay","AK",61.845019,-165.581945
"734",2,68230,"Selawik","AK",66.603302,-160.02504
"735",2,68340,"Seldovia","AK",59.439076,-151.709114
"736",2,68560,"Seward","AK",60.113554,-149.39299
"737",2,68670,"Shageluk","AK",62.668392,-159.565135
"738",2,68890,"Shaktoolik","AK",64.36403,-161.204206
"739",2,69220,"Sheldon Point","AK",62.516887,-164.892782
"740",2,69770,"Shishmaref","AK",66.250656,-166.119539
"741",2,70100,"Shungnak","AK",66.875901,-157.155702
"742",2,70540,"Sitka","AK",57.21405,-135.446833
"743",2,70760,"Skagway","AK",59.520367,-135.335701
"744",2,70870,"Skwentna","AK",61.990238,-151.397818
"745",2,70930,"Slana","AK",62.701524,-143.993976
"746",2,71090,"Sleetmute","AK",61.721141,-157.183563
"747",2,71640,"Soldotna","AK",60.487489,-151.06436
"748",2,72190,"South Naknek","AK",58.685182,-156.980458
"749",2,72960,"Stebbins","AK",63.478468,-162.227355
"750",2,73070,"Sterling","AK",60.515179,-150.797051
"751",2,73290,"Stevens Village","AK",65.999046,-149.054652
"752",2,73400,"Stony River","AK",61.793128,-156.580762
"753",2,74500,"Sutton","AK",61.717255,-148.881229
"754",2,74610,"Takotna","AK",62.992833,-156.171777
"755",2,74830,"Talkeetna","AK",62.33694,-150.092575
"756",2,75050,"Tanacross","AK",63.3391,-143.432723
"757",2,75160,"Tanana","AK",65.155992,-152.101918
"758",2,75380,"Tatitlek","AK",60.883869,-146.677745
"759",2,75930,"Teller","AK",65.256049,-166.36303
"760",2,76260,"Tenakee Springs","AK",57.778393,-135.139441
"761",2,76590,"Tetlin","AK",63.064643,-142.438924
"762",2,77140,"Thorne Bay","AK",55.659194,-132.524696
"763",2,77690,"Togiak","AK",58.936107,-160.5767
"764",2,77800,"Tok","AK",63.300305,-143.038777
"765",2,78240,"Toksook Bay","AK",60.493074,-165.094243
"766",2,78350,"Tonsina","AK",61.635818,-145.157477
"767",2,78680,"Trapper Creek","AK",62.241445,-150.415685
"768",2,78790,"Tuluksak","AK",61.115757,-160.939181
"769",2,79110,"Tuntutuliak","AK",60.326313,-162.740699
"770",2,79230,"Tununak","AK",60.578904,-165.244762
"771",2,79780,"Twin Hills","AK",59.07946,-160.210156
"772",2,79830,"Two Rivers","AK",64.870994,-147.090009
"773",2,79890,"Tyonek","AK",61.066993,-151.215174
"774",2,80660,"Unalakleet","AK",63.884662,-160.789767
"775",2,80770,"Unalaska","AK",53.934465,-166.510424
"776",2,81320,"Upper Kalskag","AK",61.539126,-160.32895
"777",2,82200,"Valdez","AK",61.083369,-146.302374
"778",2,82420,"Venetie","AK",67.014588,-146.397946
"779",2,82750,"Wainwright","AK",70.599953,-160.071563
"780",2,82860,"Wales","AK",65.609251,-168.079924
"781",2,83080,"Wasilla","AK",61.580211,-149.461598
"782",2,84000,"Whale Pass","AK",56.103172,-133.172668
"783",2,84070,"White Mountain","AK",64.683605,-163.419517
"784",2,84200,"Whitestone Logging Camp C","AK",58.071247,-135.429846
"785",2,84510,"Whittier","AK",60.79356,-148.651577
"786",2,85280,"Willow","AK",61.740786,-150.056317
"787",2,85680,"Womens Bay","AK",57.682308,-152.66872
"788",2,86380,"Wrangell","AK",56.361602,-132.271579
"789",2,86490,"Yakutat","AK",59.557526,-139.762121
"790",4,870,"Ajo","AZ",32.387246,-112.868364
"791",4,1010,"Ak-Chin Village","AZ",33.028295,-112.086986
"792",4,2830,"Apache Junction","AZ",33.405,-111.546999
"793",4,3530,"Arizona City","AZ",32.750803,-111.669818
"794",4,4720,"Avondale","AZ",33.420072,-112.324044
"795",4,4880,"Avra Valley","AZ",32.437856,-111.314712
"796",4,5140,"Bagdad","AZ",34.577922,-113.17373
"797",4,5770,"Benson","AZ",31.962193,-110.303107
"798",4,6015,"Big Park","AZ",34.78018,-111.761827
"799",4,6260,"Bisbee","AZ",31.404563,-109.917479
"800",4,6610,"Black Canyon City","AZ",34.062484,-112.109368
"801",4,6820,"Blackwater","AZ",33.030663,-111.61527
"802",4,7025,"Bluewater","AZ",34.168535,-114.26412
"803",4,7940,"Buckeye","AZ",33.412639,-112.585529
"804",4,8255,"Bullhead City","AZ",35.114187,-114.55859
"805",4,8710,"Bylas","AZ",33.130591,-110.110094
"806",4,9340,"Cameron","AZ",35.84825,-111.431858
"807",4,9690,"Camp Verde","AZ",34.569655,-111.856192
"808",4,10040,"Canyon Day","AZ",33.78142,-110.026176
"809",4,10180,"Carefree","AZ",33.822423,-111.91844
"810",4,10530,"Casa Grande","AZ",32.892313,-111.735927
"811",4,11160,"Catalina","AZ",32.47685,-110.900211
"812",4,11300,"Cave Creek","AZ",33.826165,-111.965206
"813",4,11720,"Central Heights-Midland C","AZ",33.405183,-110.812166
"814",4,12000,"Chandler","AZ",33.295,-111.866856
"815",4,12770,"Chinle","AZ",36.151912,-109.580026
"816",4,12840,"Chino Valley","AZ",34.763216,-112.454696
"817",4,13190,"Chuichu","AZ",32.744768,-111.797223
"818",4,13400,"Cibecue","AZ",34.029486,-110.482165
"819",4,13890,"Clarkdale","AZ",34.759667,-112.056476
"820",4,13960,"Claypool","AZ",33.406687,-110.840115
"821",4,14380,"Clifton","AZ",33.023511,-109.290494
"822",4,14870,"Colorado City","AZ",36.980841,-112.982502
"823",4,15500,"Coolidge","AZ",32.982439,-111.5276
"824",4,15920,"Cornville","AZ",34.721847,-111.907833
"825",4,16410,"Cottonwood","AZ",34.73452,-112.024405
"826",4,16485,"Cottonwood-Verde Village","AZ",34.711146,-111.994376
"827",4,18580,"Dennehotso","AZ",36.821527,-109.883784
"828",4,18740,"Desert Hills","AZ",34.55397,-114.371691
"829",4,19145,"Dewey-Humboldt","AZ",34.532554,-112.2518
"830",4,19630,"Dolan Springs","AZ",35.604482,-114.266523
"831",4,20050,"Douglas","AZ",31.342687,-109.528194
"832",4,20680,"Dudleyville","AZ",32.914267,-110.733779
"833",4,20750,"Duncan","AZ",32.736254,-109.09178
"834",4,20960,"Eagar","AZ",34.104928,-109.292112
"835",4,21310,"East Fork","AZ",33.806447,-109.931443
"836",4,21800,"Ehrenberg","AZ",33.622929,-114.493922
"837",4,22220,"El Mirage","AZ",33.59121,-112.324018
"838",4,22360,"Eloy","AZ",32.745043,-111.606508
"839",4,23620,"Flagstaff","AZ",35.189005,-111.619768
"840",4,23760,"Florence","AZ",33.037566,-111.373908
"841",4,23960,"Flowing Wells","AZ",32.293812,-111.009162
"842",4,24460,"Fort Defiance","AZ",35.743675,-109.066589
"843",4,25030,"Fortuna Foothills","AZ",32.657665,-114.41103
"844",4,25300,"Fountain Hills","AZ",33.60535,-111.741113
"845",4,25720,"Fredonia","AZ",36.964762,-112.518848
"846",4,26210,"Ganado","AZ",35.707551,-109.55203
"847",4,27050,"Gila Bend","AZ",32.951532,-112.684799
"848",4,27400,"Gilbert","AZ",33.332032,-111.764189
"849",4,27820,"Glendale","AZ",33.584128,-112.20159
"850",4,28030,"Globe","AZ",33.382813,-110.754305
"851",4,28195,"Golden Valley","AZ",35.223239,-114.22209
"852",4,28380,"Goodyear","AZ",33.346954,-112.411365
"853",4,28981,"Grand Canyon Village","AZ",36.046441,-112.153457
"854",4,29430,"Greasewood","AZ",35.528024,-109.86009
"855",4,29710,"Green Valley","AZ",31.84854,-111.009769
"856",4,30270,"Guadalupe","AZ",33.365767,-111.961669
"857",4,32020,"Hayden","AZ",32.999884,-110.780957
"858",4,32410,"Heber-Overgaard","AZ",34.414006,-110.568836
"859",4,33280,"Holbrook","AZ",34.912841,-110.155225
"860",4,33910,"Hotevilla","AZ",35.923787,-110.657593
"861",4,34120,"Huachuca City","AZ",31.632069,-110.340846
"862",4,36290,"Jerome","AZ",34.746705,-112.106123
"863",4,36475,"Kachina Village","AZ",35.097003,-111.691933
"864",4,36640,"Kaibito","AZ",36.589036,-111.110317
"865",4,36990,"Kayenta","AZ",36.71796,-110.252566
"866",4,37130,"Keams Canyon","AZ",35.815911,-110.208894
"867",4,37200,"Kearny","AZ",33.056211,-110.905981
"868",4,37620,"Kingman","AZ",35.20702,-114.03197
"869",4,38670,"Komatke","AZ",33.306204,-112.178107
"870",4,39100,"Kykotsmovi Village","AZ",35.87424,-110.622749
"871",4,39370,"Lake Havasu City","AZ",34.502866,-114.314272
"872",4,39720,"Lake Montezuma","AZ",34.639323,-111.795516
"873",4,40630,"Leupp","AZ",35.295387,-111.000574
"874",4,41330,"Litchfield Park","AZ",33.502526,-112.358817
"875",4,42660,"Lukachukai","AZ",36.400071,-109.256877
"876",4,42800,"Luke AFB","AZ",33.533129,-112.370673
"877",4,43430,"McNary","AZ",34.095785,-109.850548
"878",4,43990,"Mammoth","AZ",32.721506,-110.643497
"879",4,44200,"Many Farms","AZ",36.350271,-109.618463
"880",4,44270,"Marana","AZ",32.414432,-111.172754
"881",4,46000,"Mesa","AZ",33.417736,-111.740337
"882",4,46350,"Miami","AZ",33.394327,-110.872055
"883",4,47330,"Moenkopi","AZ",36.110912,-111.222177
"884",4,47400,"Mohave Valley","AZ",34.933188,-114.588049
"885",4,47610,"Morenci","AZ",33.053047,-109.329545
"886",4,49270,"New Kingman-Butler","AZ",35.260142,-114.029765
"887",4,49640,"Nogales","AZ",31.363719,-110.932639
"888",4,51180,"Oracle","AZ",32.618765,-110.784194
"889",4,51600,"Oro Valley","AZ",32.424972,-110.964657
"890",4,51810,"Page","AZ",36.904253,-111.457823
"891",4,52930,"Paradise Valley","AZ",33.539267,-111.954622
"892",4,53070,"Parker","AZ",34.021823,-114.231043
"893",4,53210,"Parker Strip","AZ",34.257749,-114.142052
"894",4,53490,"Patagonia","AZ",31.54328,-110.74895
"895",4,53700,"Payson","AZ",34.242604,-111.327002
"896",4,53770,"Peach Springs","AZ",35.527421,-113.429819
"897",4,54050,"Peoria","AZ",33.688481,-112.244464
"898",4,54190,"Peridot","AZ",33.302665,-110.454308
"899",4,55000,"Phoenix","AZ",33.54255,-112.071399
"900",4,55300,"Picture Rocks","AZ",32.345764,-111.245677
"901",4,55560,"Pima","AZ",32.888143,-109.833319
"902",4,55980,"Pinetop-Lakeside","AZ",34.148123,-109.966371
"903",4,56120,"Pinon","AZ",36.100708,-110.221264
"904",4,56400,"Pirtleville","AZ",31.361653,-109.566932
"905",4,56470,"Pisinemo","AZ",32.037785,-112.320326
"906",4,56890,"Polacca","AZ",35.835638,-110.365594
"907",4,57170,"Poston","AZ",33.959122,-114.415234
"908",4,57380,"Prescott","AZ",34.576007,-112.449076
"909",4,57450,"Prescott Valley","AZ",34.608234,-112.321417
"910",4,58010,"Quartzsite","AZ",33.666992,-114.214993
"911",4,58150,"Queen Creek","AZ",33.24143,-111.643236
"912",4,60184,"Rio Rico East","AZ",31.479779,-110.975573
"913",4,61370,"Rough Rock","AZ",36.409547,-109.867529
"914",4,61720,"Sacaton","AZ",33.082147,-111.746081
"915",4,62000,"Safford","AZ",32.831157,-109.698147
"916",4,62280,"St. David","AZ",31.900091,-110.229392
"917",4,62350,"St. Johns","AZ",34.509929,-109.376758
"918",4,62420,"St. Michaels","AZ",35.661688,-109.09362
"919",4,62910,"San Carlos","AZ",33.348635,-110.465051
"920",4,63470,"San Luis","AZ",32.492453,-114.777861
"921",4,63540,"San Manuel","AZ",32.613999,-110.636202
"922",4,64100,"Santan","AZ",33.145476,-111.801546
"923",4,64310,"Santa Rosa","AZ",32.334847,-112.045401
"924",4,64590,"Sawmill","AZ",35.891686,-109.15352
"925",4,65000,"Scottsdale","AZ",33.685992,-111.870478
"926",4,65280,"Second Mesa","AZ",35.817608,-110.503592
"927",4,65350,"Sedona","AZ",34.859275,-111.795122
"928",4,65490,"Sells","AZ",31.918458,-111.876443
"929",4,66190,"Shongopovi","AZ",35.818099,-110.533999
"930",4,66260,"Shonto","AZ",36.588018,-110.654182
"931",4,66470,"Show Low","AZ",34.237331,-110.044298
"932",4,66820,"Sierra Vista","AZ",31.565113,-110.322461
"933",4,66845,"Sierra Vista Southeast CD","AZ",31.460592,-110.217428
"934",4,67800,"Snowflake","AZ",34.521977,-110.084197
"935",4,68080,"Somerton","AZ",32.597083,-114.709457
"936",4,68850,"South Tucson","AZ",32.196,-110.968249
"937",4,68990,"Springerville","AZ",34.156075,-109.296503
"938",4,70320,"Sun City","AZ",33.616267,-112.281815
"939",4,70355,"Sun City West","AZ",33.665416,-112.354123
"940",4,70530,"Sun Lakes","AZ",33.216859,-111.870092
"941",4,71230,"Supai","AZ",36.224157,-112.693212
"942",4,71300,"Superior","AZ",33.285854,-111.109484
"943",4,71510,"Surprise","AZ",33.664112,-112.468451
"944",4,71650,"Swift Trail Junction","AZ",32.732465,-109.714932
"945",4,72420,"Taylor","AZ",34.449926,-110.11155
"946",4,72560,"Teec Nos Pos","AZ",36.929104,-109.082099
"947",4,73000,"Tempe","AZ",33.38835,-111.930639
"948",4,73420,"Thatcher","AZ",32.838355,-109.759036
"949",4,73700,"Three Points","AZ",32.067515,-111.278411
"950",4,74190,"Tolleson","AZ",33.4488,-112.254824
"951",4,74400,"Tombstone","AZ",31.717305,-110.062216
"952",4,75600,"Tsaile","AZ",36.303712,-109.214705
"953",4,76010,"Tuba City","AZ",36.124981,-111.242465
"954",4,77000,"Tucson","AZ",32.195816,-110.891717
"955",4,77035,"Tucson Estates","AZ",32.18955,-111.084058
"956",4,78760,"Valencia West","AZ",32.135139,-111.106913
"957",4,81480,"Wellton","AZ",32.672888,-114.139327
"958",4,82155,"Whetstone","AZ",31.701705,-110.340746
"959",4,82530,"Whiteriver","AZ",33.838919,-109.961619
"960",4,82740,"Wickenburg","AZ",33.966615,-112.754409
"961",4,83090,"Willcox","AZ",32.25067,-109.835163
"962",4,83160,"Williams","AZ",35.264635,-112.172838
"963",4,83570,"Willow Valley","AZ",34.912035,-114.605802
"964",4,83720,"Window Rock","AZ",35.670895,-109.06437
"965",4,83790,"Winkelman","AZ",32.989003,-110.769577
"966",4,83930,"Winslow","AZ",35.027779,-110.706934
"967",4,85400,"Youngtown","AZ",33.58715,-112.303049
"968",4,85540,"Yuma","AZ",32.67745,-114.620157
"969",5,250,"Adona","AR",35.039957,-92.898462
"970",5,580,"Alexander","AR",34.630272,-92.442774
"971",5,700,"Alicia","AR",35.89442,-91.083028
"972",5,940,"Allport","AR",34.539454,-91.784843
"973",5,970,"Alma","AR",35.489943,-94.222852
"974",5,1030,"Almyra","AR",34.405749,-91.410555
"975",5,1060,"Alpena","AR",36.29297,-93.293346
"976",5,1150,"Altheimer","AR",34.318947,-91.846228
"977",5,1210,"Altus","AR",35.442873,-93.762461
"978",5,1270,"Amagon","AR",35.562441,-91.110573
"979",5,1360,"Amity","AR",34.266149,-93.463909
"980",5,1540,"Antoine","AR",34.034016,-93.421059
"981",5,1870,"Arkadelphia","AR",34.123759,-93.070631
"982",5,1990,"Arkansas City","AR",33.608824,-91.205659
"983",5,2380,"Ashdown","AR",33.674367,-94.125998
"984",5,2470,"Ash Flat","AR",36.225765,-91.606522
"985",5,2590,"Atkins","AR",35.242555,-92.945561
"986",5,2680,"Aubrey","AR",34.71978,-90.897847
"987",5,2740,"Augusta","AR",35.285466,-91.360486
"988",5,2860,"Austin","AR",34.99804,-91.981777
"989",5,3040,"Avoca","AR",36.399898,-94.073037
"990",5,3280,"Bald Knob","AR",35.308177,-91.572525
"991",5,3430,"Banks","AR",33.575929,-92.268238
"992",5,3640,"Barling","AR",35.325153,-94.300068
"993",5,3940,"Bassett","AR",35.536081,-90.130889
"994",5,4030,"Batesville","AR",35.76824,-91.622279
"995",5,4090,"Bauxite","AR",34.556876,-92.526041
"996",5,4180,"Bay","AR",35.740027,-90.55919
"997",5,4420,"Bearden","AR",33.727515,-92.616261
"998",5,4540,"Beaver","AR",36.476124,-93.772743
"999",5,4600,"Beebe","AR",35.072252,-91.89389
"1000",5,4720,"Beedeville","AR",35.428568,-91.108917
"1001",5,4840,"Bella Vista","AR",36.468136,-94.294387
"1002",5,4900,"Bellefonte","AR",36.200434,-93.046363
"1003",5,4960,"Belleville","AR",35.090666,-93.445305
"1004",5,5260,"Ben Lomond","AR",33.834431,-94.114988
"1005",5,5290,"Benton","AR",34.569243,-92.57725
"1006",5,5320,"Bentonville","AR",36.36885,-94.204849
"1007",5,5440,"Bergman","AR",36.31294,-93.011061
"1008",5,5560,"Berryville","AR",36.371001,-93.565389
"1009",5,5740,"Bethel Heights","AR",36.222767,-94.127457
"1010",5,5920,"Bigelow","AR",34.998974,-92.631041
"1011",5,5980,"Big Flat","AR",36.005766,-92.404996
"1012",5,6040,"Biggers","AR",36.332002,-90.805928
"1013",5,6430,"Birdsong","AR",35.459018,-90.260501
"1014",5,6610,"Black Oak","AR",35.835471,-90.367109
"1015",5,6700,"Black Rock","AR",36.106382,-91.108629
"1016",5,6730,"Black Springs","AR",34.461511,-93.713541
"1017",5,7030,"Blevins","AR",33.871131,-93.577248
"1018",5,7150,"Blue Eye","AR",36.495973,-93.396921
"1019",5,7210,"Blue Mountain","AR",35.131714,-93.715311
"1020",5,7270,"Bluff City","AR",33.717233,-93.133062
"1021",5,7330,"Blytheville","AR",35.934312,-89.924775
"1022",5,7450,"Bodcaw","AR",33.556622,-93.401113
"1023",5,7540,"Bonanza","AR",35.234127,-94.427445
"1024",5,7630,"Bono","AR",35.910539,-90.796673
"1025",5,7720,"Booneville","AR",35.139397,-93.918461
"1026",5,8260,"Bradford","AR",35.423067,-91.456642
"1027",5,8290,"Bradley","AR",33.099915,-93.656861
"1028",5,8440,"Branch","AR",35.306056,-93.956258
"1029",5,8950,"Brinkley","AR",34.88433,-91.189038
"1030",5,9100,"Brookland","AR",35.90141,-90.580836
"1031",5,9460,"Bryant","AR",34.612371,-92.492041
"1032",5,9550,"Buckner","AR",33.357167,-93.43538
"1033",5,9790,"Bull Shoals","AR",36.376039,-92.588413
"1034",5,9880,"Burdette","AR",35.814861,-89.945934
"1035",5,10300,"Cabot","AR",34.968176,-92.02199
"1036",5,10360,"Caddo Valley","AR",34.187866,-93.07004
"1037",5,10450,"Caldwell","AR",35.079327,-90.815078
"1038",5,10480,"Cale","AR",33.627926,-93.233108
"1039",5,10570,"Calico Rock","AR",36.128298,-92.131148
"1040",5,10600,"Calion","AR",33.328838,-92.538397
"1041",5,10720,"Camden","AR",33.566689,-92.845657
"1042",5,10780,"Cammack Village","AR",34.77985,-92.34678
"1043",5,10900,"Campbell Station","AR",35.669481,-91.25438
"1044",5,11410,"Caraway","AR",35.758035,-90.331987
"1045",5,11500,"Carlisle","AR",34.786086,-91.746514
"1046",5,11830,"Carthage","AR",34.072252,-92.555548
"1047",5,11890,"Casa","AR",35.025833,-93.044321
"1048",5,11920,"Cash","AR",35.799822,-90.9322
"1049",5,12190,"Caulksville","AR",35.301739,-93.868499
"1050",5,12280,"Cave City","AR",35.94668,-91.54783
"1051",5,12340,"Cave Springs","AR",36.262694,-94.228719
"1052",5,12820,"Centerton","AR",36.360312,-94.284966
"1053",5,13120,"Central City","AR",35.327363,-94.236698
"1054",5,13300,"Charleston","AR",35.294511,-94.048435
"1055",5,13450,"Cherokee Village-Hidden V","AR",36.301622,-91.569482
"1056",5,13540,"Cherry Valley","AR",35.402976,-90.753787
"1057",5,13570,"Chester","AR",35.678047,-94.177474
"1058",5,13750,"Chidester","AR",33.69991,-93.018715
"1059",5,13990,"Clarendon","AR",34.695458,-91.305817
"1060",5,14140,"Clarksville","AR",35.457574,-93.472395
"1061",5,14260,"Clinton","AR",35.581075,-92.452359
"1062",5,14500,"Coal Hill","AR",35.437023,-93.667554
"1063",5,14770,"College City","AR",36.125709,-90.939988
"1064",5,14950,"Colt","AR",35.132535,-90.812292
"1065",5,15100,"Concord","AR",35.663429,-91.848729
"1066",5,15190,"Conway","AR",35.088809,-92.453098
"1067",5,15310,"Corinth","AR",35.068243,-93.420544
"1068",5,15460,"Corning","AR",36.410818,-90.585851
"1069",5,15490,"Cotter","AR",36.282492,-92.520229
"1070",5,15550,"Cotton Plant","AR",35.006938,-91.251472
"1071",5,15700,"Cove","AR",34.435017,-94.409229
"1072",5,15790,"Coy","AR",34.541787,-91.869599
"1073",5,15940,"Crawfordsville","AR",35.225653,-90.32622
"1074",5,16240,"Crossett","AR",33.127353,-91.966014
"1075",5,16930,"Cushman","AR",35.863606,-91.778612
"1076",5,17140,"Daisy","AR",34.233088,-93.741895
"1077",5,17290,"Damascus","AR",35.36464,-92.405811
"1078",5,17320,"Danville","AR",35.052081,-93.390282
"1079",5,17380,"Dardanelle","AR",35.226423,-93.165609
"1080",5,17410,"Datto","AR",36.393166,-90.728081
"1081",5,17740,"Decatur","AR",36.337579,-94.458484
"1082",5,18010,"Delaplaine","AR",36.23132,-90.726015
"1083",5,18100,"Delight","AR",34.029446,-93.505771
"1084",5,18160,"Dell","AR",35.855185,-90.033437
"1085",5,18370,"Denning","AR",35.424602,-93.755219
"1086",5,18490,"De Queen","AR",34.04274,-94.341807
"1087",5,18520,"Dermott","AR",33.526602,-91.437725
"1088",5,18550,"Des Arc","AR",34.975676,-91.505167
"1089",5,18640,"De Valls Bluff","AR",34.785728,-91.460788
"1090",5,18790,"De Witt","AR",34.289533,-91.338131
"1091",5,18850,"Diamond City","AR",36.4558,-92.915096
"1092",5,18940,"Diaz","AR",35.647949,-91.259891
"1093",5,18970,"Dierks","AR",34.120579,-94.018769
"1094",5,19600,"Dover","AR",35.402166,-93.112419
"1095",5,19990,"Dumas","AR",33.883161,-91.485919
"1096",5,20200,"Dyer","AR",35.494446,-94.138336
"1097",5,20230,"Dyess","AR",35.589359,-90.213131
"1098",5,20320,"Earle","AR",35.273294,-90.464978
"1099",5,20440,"East Camden","AR",33.608507,-92.742409
"1100",5,20830,"Edmondson","AR",35.103547,-90.309776
"1101",5,20920,"Egypt","AR",35.866649,-90.952883
"1102",5,20950,"Elaine","AR",34.308276,-90.854089
"1103",5,21070,"El Dorado","AR",33.219028,-92.662763
"1104",5,21190,"Elkins","AR",36.019799,-94.028293
"1105",5,21430,"Elm Springs","AR",36.201729,-94.215496
"1106",5,21580,"Emerson","AR",33.097365,-93.196092
"1107",5,21610,"Emmet","AR",33.722052,-93.466177
"1108",5,21730,"England","AR",34.544911,-91.967931
"1109",5,21820,"Enola","AR",35.200235,-92.201061
"1110",5,22180,"Eudora","AR",33.119766,-91.263117
"1111",5,22240,"Eureka Springs","AR",36.399212,-93.737378
"1112",5,22360,"Evening Shade","AR",36.070437,-91.621271
"1113",5,22450,"Everton","AR",36.155375,-92.908392
"1114",5,22660,"Fairfield Bay","AR",35.605071,-92.269823
"1115",5,23140,"Fargo","AR",34.955047,-91.177055
"1116",5,23170,"Farmington","AR",36.042343,-94.241974
"1117",5,23290,"Fayetteville","AR",36.0718,-94.155684
"1118",5,23320,"Felsenthal","AR",33.057875,-92.152623
"1119",5,23680,"Fifty-Six","AR",35.960401,-92.229916
"1120",5,23800,"Fisher","AR",35.491473,-90.972178
"1121",5,24010,"Flippin","AR",36.277018,-92.592059
"1122",5,24220,"Fordyce","AR",33.817686,-92.413813
"1123",5,24250,"Foreman","AR",33.717334,-94.397549
"1124",5,24430,"Forrest City","AR",35.014391,-90.78534
"1125",5,24550,"Fort Smith","AR",35.36785,-94.384737
"1126",5,24640,"Fouke","AR",33.26078,-93.886448
"1127",5,24670,"Fountain Hill","AR",33.356933,-91.85086
"1128",5,24760,"Fourche","AR",34.993105,-92.618812
"1129",5,25030,"Franklin","AR",36.171398,-91.772334
"1130",5,25060,"Fredonia (Biscoe)","AR",34.818578,-91.409077
"1131",5,25180,"Friendship","AR",34.223753,-93.003008
"1132",5,25360,"Fulton","AR",33.611864,-93.814287
"1133",5,25750,"Garfield","AR",36.453719,-93.969783
"1134",5,25780,"Garland","AR",33.359815,-93.712812
"1135",5,25900,"Garner","AR",35.13948,-91.78013
"1136",5,26050,"Gassville","AR",36.282551,-92.494682
"1137",5,26110,"Gateway","AR",36.485566,-93.936335
"1138",5,26290,"Gentry","AR",36.266809,-94.482846
"1139",5,26440,"Georgetown","AR",35.126261,-91.453233
"1140",5,26710,"Gibson","AR",34.895368,-92.227056
"1141",5,26800,"Gilbert","AR",35.990187,-92.718214
"1142",5,26980,"Gillett","AR",34.119126,-91.378985
"1143",5,27010,"Gillham","AR",34.167868,-94.313507
"1144",5,27040,"Gilmore","AR",35.411145,-90.277431
"1145",5,27310,"Glenwood","AR",34.331128,-93.549694
"1146",5,27670,"Goshen","AR",36.108948,-94.00203
"1147",5,27700,"Gosnell","AR",35.961057,-89.97237
"1148",5,27730,"Gould","AR",33.985411,-91.562706
"1149",5,27790,"Grady","AR",34.078716,-91.698318
"1150",5,27970,"Grannis","AR",34.240052,-94.32032
"1151",5,28270,"Gravel Ridge","AR",34.871384,-92.187724
"1152",5,28360,"Gravette","AR",36.422002,-94.454145
"1153",5,28510,"Greenbrier","AR",35.229802,-92.383543
"1154",5,28600,"Green Forest","AR",36.336126,-93.42906
"1155",5,28660,"Greenland","AR",36.000187,-94.183592
"1156",5,28720,"Greenway","AR",36.341092,-90.222202
"1157",5,28780,"Greenwood","AR",35.211667,-94.235133
"1158",5,28810,"Greers Ferry","AR",35.567773,-92.169163
"1159",5,28990,"Griffithville","AR",35.124779,-91.645576
"1160",5,29020,"Grubbs","AR",35.652706,-91.074715
"1161",5,29080,"Guion","AR",35.929128,-91.940059
"1162",5,29140,"Gum Springs","AR",34.064471,-93.09588
"1163",5,29200,"Gurdon","AR",33.916435,-93.148141
"1164",5,29230,"Guy","AR",35.324504,-92.334781
"1165",5,29290,"Hackett","AR",35.187533,-94.410317
"1166",5,29500,"Hamburg","AR",33.225806,-91.797045
"1167",5,29650,"Hampton","AR",33.536717,-92.465368
"1168",5,29920,"Hardy","AR",36.321492,-91.480417
"1169",5,30310,"Harrell","AR",33.510001,-92.401651
"1170",5,30400,"Harrisburg","AR",35.560298,-90.72113
"1171",5,30460,"Harrison","AR",36.241883,-93.11946
"1172",5,30490,"Hartford","AR",35.02326,-94.378182
"1173",5,30520,"Hartman","AR",35.434468,-93.618484
"1174",5,30640,"Haskell","AR",34.505458,-92.636643
"1175",5,30700,"Hatfield","AR",34.487103,-94.378659
"1176",5,30790,"Havana","AR",35.110232,-93.527921
"1177",5,30880,"Haynes","AR",34.889811,-90.792371
"1178",5,30940,"Hazen","AR",34.789298,-91.573738
"1179",5,31090,"Heber Springs","AR",35.500186,-92.038592
"1180",5,31150,"Hector","AR",35.465699,-92.975251
"1181",5,31180,"Helena","AR",34.526257,-90.604698
"1182",5,31540,"Hermitage","AR",33.447234,-92.170209
"1183",5,31900,"Hickory Ridge","AR",35.403525,-90.994692
"1184",5,32080,"Higden","AR",35.566363,-92.205187
"1185",5,32140,"Higginson","AR",35.195789,-91.711479
"1186",5,32200,"Highfill","AR",36.259237,-94.356268
"1187",5,32470,"Hindsville","AR",36.147569,-93.860076
"1188",5,32800,"Holly Grove","AR",34.596165,-91.200667
"1189",5,33190,"Hope","AR",33.668223,-93.591234
"1190",5,33310,"Horatio","AR",33.939833,-94.355108
"1191",5,33370,"Horseshoe Bend","AR",36.223312,-91.740954
"1192",5,33375,"Horseshoe Lake","AR",34.913338,-90.307035
"1193",5,33460,"Hot Springs","AR",34.493672,-93.052042
"1194",5,33482,"Hot Springs Village","AR",34.665171,-93.000065
"1195",5,33490,"Houston","AR",35.034912,-92.694124
"1196",5,33580,"Hoxie","AR",36.043709,-90.977491
"1197",5,33760,"Hughes","AR",34.948477,-90.47127
"1198",5,33820,"Humnoke","AR",34.542143,-91.758834
"1199",5,33850,"Humphrey","AR",34.422617,-91.702285
"1200",5,33910,"Hunter","AR",35.053363,-91.122745
"1201",5,33940,"Huntington","AR",35.081796,-94.265984
"1202",5,33970,"Huntsville","AR",36.089081,-93.73723
"1203",5,34090,"Huttig","AR",33.041275,-92.182249
"1204",5,34150,"Imboden","AR",36.201698,-91.179771
"1205",5,34720,"Jacksonport","AR",35.641209,-91.307773
"1206",5,34750,"Jacksonville","AR",34.869755,-92.127992
"1207",5,34900,"Jasper","AR",36.006054,-93.188294
"1208",5,35040,"Jennette","AR",35.165561,-90.407515
"1209",5,35140,"Jericho","AR",35.285907,-90.227305
"1210",5,35170,"Jerome","AR",33.398818,-91.470816
"1211",5,35500,"Johnson","AR",36.133174,-94.172967
"1212",5,35650,"Joiner","AR",35.508311,-90.149739
"1213",5,35710,"Jonesboro","AR",35.821828,-90.685768
"1214",5,36040,"Judsonia","AR",35.275902,-91.64017
"1215",5,36130,"Junction City","AR",33.02411,-92.723598
"1216",5,36310,"Keiser","AR",35.674485,-90.094762
"1217",5,36430,"Kensett","AR",35.235479,-91.670107
"1218",5,36550,"Keo","AR",34.613057,-92.011133
"1219",5,36670,"Kibler","AR",35.425232,-94.236048
"1220",5,36880,"Kingsland","AR",33.861294,-92.294052
"1221",5,37240,"Knobel","AR",36.319297,-90.60167
"1222",5,37300,"Knoxville","AR",35.377831,-93.364787
"1223",5,37660,"Lafe","AR",36.207081,-90.50312
"1224",5,37720,"LaGrange","AR",34.655514,-90.733726
"1225",5,37780,"Lake City","AR",35.81897,-90.44858
"1226",5,37930,"Lake Hamilton","AR",34.426023,-93.089268
"1227",5,38050,"Lakeview","AR",36.375167,-92.539165
"1228",5,38110,"Lake View","AR",34.423149,-90.810284
"1229",5,38170,"Lake Village","AR",33.324203,-91.283532
"1230",5,38290,"Lamar","AR",35.439201,-93.387796
"1231",5,38890,"Lavaca","AR",35.33498,-94.181567
"1232",5,39010,"Leachville","AR",35.921546,-90.256248
"1233",5,39040,"Lead Hill","AR",36.414723,-92.906736
"1234",5,39310,"Leola","AR",34.169321,-92.590719
"1235",5,39370,"Lepanto","AR",35.607086,-90.333493
"1236",5,39460,"Leslie","AR",35.829448,-92.555918
"1237",5,39520,"Letona","AR",35.363082,-91.83015
"1238",5,39640,"Lewisville","AR",33.362966,-93.576618
"1239",5,39670,"Lexa","AR",34.598203,-90.752614
"1240",5,39970,"Lincoln","AR",35.947224,-94.422081
"1241",5,40120,"Little Flock","AR",36.387845,-94.136486
"1242",5,41000,"Little Rock","AR",34.7224,-92.354076
"1243",5,41090,"Lockesburg","AR",33.970912,-94.173082
"1244",5,41270,"London","AR",35.328171,-93.240067
"1245",5,41420,"Lonoke","AR",34.786011,-91.899554
"1246",5,41450,"Lonsdale","AR",34.544672,-92.811078
"1247",5,41630,"Louann","AR",33.39159,-92.792748
"1248",5,41720,"Lowell","AR",36.2673,-94.136673
"1249",5,42170,"Luxora","AR",35.757668,-89.930233
"1250",5,42260,"Lynn","AR",36.006569,-91.251992
"1251",5,42410,"McCaskill","AR",33.917571,-93.641109
"1252",5,42500,"McCrory","AR",35.256855,-91.197745
"1253",5,42560,"McDougal","AR",36.436602,-90.39023
"1254",5,42770,"McGehee","AR",33.625353,-91.392533
"1255",5,43070,"McNab","AR",33.660716,-93.832225
"1256",5,43100,"McNeil","AR",33.347876,-93.208805
"1257",5,43220,"McRae","AR",35.114193,-91.822564
"1258",5,43280,"Madison","AR",35.019419,-90.73051
"1259",5,43310,"Magazine","AR",35.152692,-93.806329
"1260",5,43370,"Magness","AR",35.701878,-91.482319
"1261",5,43460,"Magnolia","AR",33.274016,-93.235379
"1262",5,43610,"Malvern","AR",34.371124,-92.815565
"1263",5,43670,"Mammoth Spring","AR",36.494133,-91.544698
"1264",5,43820,"Manila","AR",35.883589,-90.161451
"1265",5,43880,"Mansfield","AR",35.059073,-94.246744
"1266",5,44120,"Marianna","AR",34.774584,-90.766352
"1267",5,44150,"Marie","AR",35.613285,-90.081687
"1268",5,44180,"Marion","AR",35.206516,-90.203462
"1269",5,44210,"Marked Tree","AR",35.529954,-90.417457
"1270",5,44240,"Marmaduke","AR",36.188351,-90.387775
"1271",5,44300,"Marshall","AR",35.909875,-92.636207
"1272",5,44420,"Marvell","AR",34.555991,-90.914514
"1273",5,44600,"Maumelle","AR",34.85248,-92.410534
"1274",5,44750,"Mayflower","AR",34.971815,-92.419024
"1275",5,44780,"Maynard","AR",36.421847,-90.901909
"1276",5,45080,"Melbourne","AR",36.062337,-91.898652
"1277",5,45170,"Mena","AR",34.58045,-94.236696
"1278",5,45200,"Menifee","AR",35.148312,-92.55482
"1279",5,45500,"Midland","AR",35.093,-94.352662
"1280",5,46040,"Mineral Springs","AR",33.877647,-93.919964
"1281",5,46100,"Minturn","AR",35.975002,-91.027498
"1282",5,46190,"Mitchellville","AR",33.905872,-91.498487
"1283",5,46400,"Monette","AR",35.89366,-90.344632
"1284",5,46580,"Monticello","AR",33.624763,-91.793784
"1285",5,46670,"Montrose","AR",33.298565,-91.49703
"1286",5,46730,"Moorefield","AR",35.768123,-91.570961
"1287",5,46910,"Moro","AR",34.79253,-90.989274
"1288",5,46970,"Morrilton","AR",35.156241,-92.740892
"1289",5,47030,"Morrison Bluff","AR",35.382189,-93.527432
"1290",5,47300,"Mountainburg","AR",35.63478,-94.165864
"1291",5,47390,"Mountain Home","AR",36.335916,-92.379171
"1292",5,47450,"Mountain Pine","AR",34.571426,-93.173951
"1293",5,47540,"Mountain View","AR",35.869951,-92.111107
"1294",5,47690,"Mount Ida","AR",34.551784,-93.631119
"1295",5,47900,"Mount Pleasant","AR",35.982389,-91.77768
"1296",5,48020,"Mount Vernon","AR",35.224037,-92.13008
"1297",5,48200,"Mulberry","AR",35.508409,-94.074215
"1298",5,48290,"Murfreesboro","AR",34.063002,-93.691123
"1299",5,48560,"Nashville","AR",33.940923,-93.851622
"1300",5,49010,"Newark","AR",35.70534,-91.442858
"1301",5,49580,"Newport","AR",35.625546,-91.235159
"1302",5,49820,"Nimmons","AR",36.306965,-90.094498
"1303",5,50000,"Norfork","AR",36.208327,-92.281996
"1304",5,50030,"Norman","AR",34.456677,-93.677786
"1305",5,50060,"Norphlet","AR",33.319647,-92.663153
"1306",5,50240,"North Crossett","AR",33.1698,-91.936218
"1307",5,50450,"North Little Rock","AR",34.7884,-92.255437
"1308",5,50810,"Oak Grove","AR",36.459686,-93.435898
"1309",5,51060,"Oak Grove Heights","AR",36.12734,-90.51518
"1310",5,51080,"Oakhaven","AR",33.72913,-93.619952
"1311",5,51290,"Oden","AR",34.620237,-93.785248
"1312",5,51350,"Ogden","AR",33.584847,-94.044513
"1313",5,51410,"Oil Trough","AR",35.629494,-91.461233
"1314",5,51500,"O'Kean","AR",36.167799,-90.817207
"1315",5,51530,"Okolona","AR",34.000486,-93.337187
"1316",5,51560,"Ola","AR",35.031002,-93.224087
"1317",5,52160,"Omaha","AR",36.463215,-93.191876
"1318",5,52430,"Oppelo","AR",35.101014,-92.775129
"1319",5,52580,"Osceola","AR",35.701277,-89.994498
"1320",5,52880,"Oxford","AR",36.207269,-91.919396
"1321",5,52940,"Ozan","AR",33.847339,-93.719426
"1322",5,52970,"Ozark","AR",35.496243,-93.840504
"1323",5,53150,"Palestine","AR",34.970296,-90.905007
"1324",5,53240,"Pangburn","AR",35.426167,-91.838669
"1325",5,53390,"Paragould","AR",36.056123,-90.513515
"1326",5,53480,"Paris","AR",35.288875,-93.724606
"1327",5,53510,"Parkdale","AR",33.120779,-91.545842
"1328",5,53555,"Parkers-Iron Springs","AR",34.605246,-92.322218
"1329",5,53600,"Parkin","AR",35.264471,-90.552454
"1330",5,53900,"Patmos","AR",33.511943,-93.566663
"1331",5,53990,"Patterson","AR",35.257567,-91.236613
"1332",5,54140,"Peach Orchard","AR",36.28094,-90.661931
"1333",5,54200,"Pea Ridge","AR",36.450521,-94.115902
"1334",5,54620,"Perla","AR",34.364442,-92.778604
"1335",5,54650,"Perry","AR",35.044871,-92.793817
"1336",5,54680,"Perrytown","AR",33.696509,-93.532593
"1337",5,54710,"Perryville","AR",35.008437,-92.80346
"1338",5,55130,"Piggott","AR",36.383881,-90.200814
"1339",5,55280,"Pindall","AR",36.058345,-92.865268
"1340",5,55310,"Pine Bluff","AR",34.2134,-92.018618
"1341",5,55580,"Pineville","AR",36.157697,-92.103924
"1342",5,55610,"Piney","AR",34.503434,-93.142649
"1343",5,55970,"Plainview","AR",34.989464,-93.297644
"1344",5,56270,"Pleasant Plains","AR",35.550638,-91.626953
"1345",5,56480,"Plumerville","AR",35.160603,-92.641221
"1346",5,56540,"Pocahontas","AR",36.263516,-90.968585
"1347",5,56600,"Pollard","AR",36.430729,-90.266203
"1348",5,56720,"Portia","AR",36.085294,-91.071315
"1349",5,56750,"Portland","AR",33.238289,-91.511179
"1350",5,56990,"Pottsville","AR",35.238375,-93.058405
"1351",5,57050,"Powhatan","AR",36.081938,-91.11892
"1352",5,57080,"Poyen","AR",34.322426,-92.642297
"1353",5,57125,"Prairie Creek","AR",36.338859,-94.061444
"1354",5,57170,"Prairie Grove","AR",35.978251,-94.317521
"1355",5,57230,"Prattsville","AR",34.318115,-92.542959
"1356",5,57260,"Prescott","AR",33.800696,-93.388
"1357",5,57890,"Pyatt","AR",36.25126,-92.844418
"1358",5,57950,"Quitman","AR",35.382269,-92.214278
"1359",5,58160,"Ratcliff","AR",35.307962,-93.888233
"1360",5,58250,"Ravenden","AR",36.236199,-91.250444
"1361",5,58280,"Ravenden Springs","AR",36.31458,-91.224049
"1362",5,58400,"Reader","AR",33.751794,-93.101221
"1363",5,58490,"Rector","AR",36.264242,-90.293344
"1364",5,58580,"Redfield","AR",34.441891,-92.183852
"1365",5,58880,"Reed","AR",33.701823,-91.44373
"1366",5,59180,"Reyno","AR",36.360774,-90.757943
"1367",5,59480,"Rison","AR",33.954456,-92.190689
"1368",5,60020,"Rockport","AR",34.391874,-92.816267
"1369",5,60110,"Rockwell","AR",34.464259,-93.133634
"1370",5,60380,"Roe","AR",34.63085,-91.385727
"1371",5,60410,"Rogers","AR",36.33125,-94.133449
"1372",5,60590,"Rondo","AR",34.65744,-90.820223
"1373",5,60770,"Rose Bud","AR",35.330884,-92.078734
"1374",5,61040,"Rosston","AR",33.586914,-93.276039
"1375",5,61460,"Rudy","AR",35.527133,-94.270298
"1376",5,61640,"Russell","AR",35.362079,-91.510371
"1377",5,61670,"Russellville","AR",35.271784,-93.140765
"1378",5,61940,"St. Charles","AR",34.375773,-91.132934
"1379",5,61970,"St. Francis","AR",36.453523,-90.143154
"1380",5,62060,"St. Paul","AR",35.823477,-93.764524
"1381",5,62150,"Salem","AR",36.371143,-91.823089
"1382",5,62210,"Salem","AR",34.629724,-92.555544
"1383",5,62240,"Salesville","AR",36.244895,-92.270021
"1384",5,62960,"Scranton","AR",35.36026,-93.538476
"1385",5,63020,"Searcy","AR",35.24288,-91.73079
"1386",5,63110,"Sedgwick","AR",35.978516,-90.863194
"1387",5,63470,"Shannon Hills","AR",34.62063,-92.40846
"1388",5,63710,"Sheridan","AR",34.309266,-92.405466
"1389",5,63740,"Sherrill","AR",34.384715,-91.950703
"1390",5,63800,"Sherwood","AR",34.832017,-92.207486
"1391",5,63980,"Shirley","AR",35.643695,-92.313387
"1392",5,64280,"Sidney","AR",36.004255,-91.658974
"1393",5,64370,"Siloam Springs","AR",36.180173,-94.540455
"1394",5,64730,"Smackover","AR",33.364593,-92.730822
"1395",5,64910,"Smithville","AR",36.080042,-91.302844
"1396",5,65480,"South Lead Hill","AR",36.39501,-92.905424
"1397",5,65900,"Sparkman","AR",33.917099,-92.848598
"1398",5,66080,"Springdale","AR",36.181333,-94.145713
"1399",5,66320,"Stamps","AR",33.358658,-93.495704
"1400",5,66440,"Star City","AR",33.940972,-91.844364
"1401",5,66860,"Stephens","AR",33.420069,-93.067427
"1402",5,67250,"Strawberry","AR",35.96557,-91.321442
"1403",5,67370,"Strong","AR",33.108043,-92.359374
"1404",5,67490,"Stuttgart","AR",34.493522,-91.550915
"1405",5,67520,"Subiaco","AR",35.297487,-93.639212
"1406",5,67550,"Success","AR",36.454518,-90.722854
"1407",5,67730,"Sulphur Rock","AR",35.750991,-91.499305
"1408",5,67760,"Sulphur Springs","AR",36.482788,-94.458607
"1409",5,67940,"Summit","AR",36.250142,-92.687427
"1410",5,68060,"Sunset","AR",35.224658,-90.207601
"1411",5,68360,"Swifton","AR",35.824199,-91.128876
"1412",5,68660,"Taylor","AR",33.100329,-93.462106
"1413",5,68810,"Texarkana","AR",33.450245,-94.015754
"1414",5,69050,"Thornton","AR",33.776218,-92.489189
"1415",5,69230,"Tillar","AR",33.710186,-91.451695
"1416",5,69350,"Tinsman","AR",33.629013,-92.353521
"1417",5,69500,"Tollette","AR",33.818038,-93.896082
"1418",5,69740,"Tontitown","AR",36.174964,-94.236884
"1419",5,69830,"Traskwood","AR",34.451933,-92.666744
"1420",5,70010,"Trumann","AR",35.674699,-90.51952
"1421",5,70100,"Tuckerman","AR",35.727875,-91.200588
"1422",5,70220,"Tull","AR",34.442337,-92.573486
"1423",5,70340,"Tupelo","AR",35.391546,-91.229943
"1424",5,70430,"Turrell","AR",35.377076,-90.25707
"1425",5,70700,"Tyronza","AR",35.490332,-90.358904
"1426",5,70760,"Ulm","AR",34.576003,-91.461253
"1427",5,71390,"Valley Springs","AR",36.152868,-92.99104
"1428",5,71480,"Van Buren","AR",35.44665,-94.352849
"1429",5,71510,"Vandervoort","AR",34.379628,-94.364453
"1430",5,71900,"Victoria","AR",35.7581,-90.060683
"1431",5,71960,"Vilonia","AR",35.084009,-92.211236
"1432",5,72140,"Viola","AR",36.396156,-91.984945
"1433",5,72230,"Wabbaseka","AR",34.360292,-91.792724
"1434",5,72320,"Waldenburg","AR",35.564863,-90.93483
"1435",5,72350,"Waldo","AR",33.352467,-93.295324
"1436",5,72380,"Waldron","AR",34.899708,-94.093573
"1437",5,72890,"Walnut Ridge","AR",36.069829,-90.958349
"1438",5,73130,"Ward","AR",35.018859,-91.955031
"1439",5,73310,"Warren","AR",33.610137,-92.069666
"1440",5,73370,"Washington","AR",33.773148,-93.682958
"1441",5,73550,"Watson","AR",33.89358,-91.257366
"1442",5,73940,"Weiner","AR",35.619158,-90.902043
"1443",5,74000,"Weldon","AR",35.447544,-91.231439
"1444",5,74270,"West Crossett","AR",33.144395,-92.019934
"1445",5,74330,"Western Grove","AR",36.10112,-92.953922
"1446",5,74360,"West Fork","AR",35.932478,-94.182318
"1447",5,74450,"West Helena","AR",34.545959,-90.64649
"1448",5,74540,"West Memphis","AR",35.149747,-90.182163
"1449",5,74660,"West Point","AR",35.204281,-91.61035
"1450",5,74840,"Wheatley","AR",34.918793,-91.107304
"1451",5,74930,"Whelen Springs","AR",33.831585,-93.12573
"1452",5,75170,"White Hall","AR",34.275567,-92.097805
"1453",5,75500,"Wickes","AR",34.299734,-94.335223
"1454",5,75560,"Widener","AR",35.021963,-90.682438
"1455",5,75570,"Wiederkehr Village","AR",35.482373,-93.757319
"1456",5,75740,"Williford","AR",36.251381,-91.360705
"1457",5,75770,"Willisville","AR",33.518456,-93.294778
"1458",5,75860,"Wilmar","AR",33.625916,-91.928969
"1459",5,75890,"Wilmot","AR",33.058282,-91.575019
"1460",5,75920,"Wilson","AR",35.566168,-90.041929
"1461",5,75980,"Wilton","AR",33.738798,-94.147459
"1462",5,76010,"Winchester","AR",33.774788,-91.475009
"1463",5,76190,"Winslow","AR",35.800937,-94.131694
"1464",5,76250,"Winthrop","AR",33.831222,-94.353426
"1465",5,76820,"Wooster","AR",35.19888,-92.448299
"1466",5,76970,"Wrightsville","AR",34.614014,-92.219905
"1467",5,77090,"Wynne","AR",35.231267,-90.788414
"1468",5,77330,"Yellville","AR",36.228739,-92.685939
"1469",5,77600,"Zinc","AR",36.285314,-92.915255
"1470",6,212,"Acton","CA",34.48278,-118.182468
"1471",6,296,"Adelanto","CA",34.569658,-117.436906
"1472",6,394,"Agoura Hills","CA",34.151019,-118.7598
"1473",6,562,"Alameda","CA",37.752767,-122.275886
"1474",6,618,"Alamo","CA",37.857067,-121.998635
"1475",6,674,"Albany","CA",37.890817,-122.327153
"1476",6,884,"Alhambra","CA",34.084,-118.134674
"1477",6,947,"Aliso Viejo","CA",33.567541,-117.725305
"1478",6,1150,"Alondra Park","CA",33.88955,-118.329974
"1479",6,1192,"Alpine","CA",32.842967,-116.761138
"1480",6,1290,"Altadena","CA",34.19225,-118.134716
"1481",6,1360,"Alta Sierra","CA",39.122861,-121.05261
"1482",6,1444,"Alturas","CA",41.491507,-120.545442
"1483",6,1514,"Amador City","CA",38.41846,-120.823284
"1484",6,1640,"American Canyon","CA",38.1732,-122.261173
"1485",6,2000,"Anaheim","CA",33.8389,-117.872331
"1486",6,2042,"Anderson","CA",40.449918,-122.294197
"1487",6,2112,"Angels","CA",38.075786,-120.54789
"1488",6,2168,"Angwin","CA",38.57765,-122.44795
"1489",6,2252,"Antioch","CA",37.988733,-121.798891
"1490",6,2364,"Apple Valley","CA",34.529346,-117.214164
"1491",6,2378,"Aptos","CA",36.991873,-121.899608
"1492",6,2382,"Aptos Hills-Larkin Valley","CA",36.960963,-121.830229
"1493",6,2420,"Arbuckle","CA",39.016277,-122.060608
"1494",6,2462,"Arcadia","CA",34.132167,-118.035692
"1495",6,2476,"Arcata","CA",40.867849,-124.080892
"1496",6,2553,"Arden-Arcade","CA",38.601098,-121.376691
"1497",6,2700,"Armona","CA",36.318018,-119.705896
"1498",6,2770,"Arnold","CA",38.232194,-120.369553
"1499",6,2812,"Aromas","CA",36.87745,-121.640349
"1500",6,2868,"Arroyo Grande","CA",35.12533,-120.583599
"1501",6,2896,"Artesia","CA",33.8672,-118.079724
"1502",6,2924,"Arvin","CA",35.200284,-118.833705
"1503",6,2980,"Ashland","CA",37.6947,-122.115358
"1504",6,3064,"Atascadero","CA",35.485484,-120.687924
"1505",6,3092,"Atherton","CA",37.45465,-122.202434
"1506",6,3162,"Atwater","CA",37.353278,-120.600006
"1507",6,3190,"Auberry","CA",37.077805,-119.493624
"1508",6,3204,"Auburn","CA",38.891993,-121.07606
"1509",6,3209,"August","CA",37.97895,-121.261002
"1510",6,3274,"Avalon","CA",33.342918,-118.327386
"1511",6,3302,"Avenal","CA",36.029588,-120.114713
"1512",6,3344,"Avocado Heights","CA",34.038383,-118.001567
"1513",6,3386,"Azusa","CA",34.1381,-117.912256
"1514",6,3526,"Bakersfield","CA",35.3577,-119.004553
"1515",6,3666,"Baldwin Park","CA",34.0828,-117.970779
"1516",6,3820,"Banning","CA",33.937295,-116.892059
"1517",6,4030,"Barstow","CA",34.877606,-117.06587
"1518",6,4478,"Bayview","CA",40.764984,-124.175941
"1519",6,4503,"Bayview-Montalvin","CA",38.001633,-122.322699
"1520",6,4541,"Baywood-Los Osos","CA",35.314604,-120.839374
"1521",6,4580,"Beale AFB","CA",39.113708,-121.361343
"1522",6,4734,"Bear Valley Springs","CA",35.159261,-118.627518
"1523",6,4758,"Beaumont","CA",33.931794,-116.978523
"1524",6,4870,"Bell","CA",33.97965,-118.178255
"1525",6,4982,"Bellflower","CA",33.888133,-118.126632
"1526",6,4996,"Bell Gardens","CA",33.967277,-118.152767
"1527",6,5108,"Belmont","CA",37.51525,-122.295138
"1528",6,5164,"Belvedere","CA",37.87165,-122.468708
"1529",6,5290,"Benicia","CA",38.07185,-122.154093
"1530",6,5332,"Ben Lomond","CA",37.103361,-122.084478
"1531",6,6000,"Berkeley","CA",37.86725,-122.29729
"1532",6,6028,"Bermuda Dunes","CA",33.742668,-116.288365
"1533",6,6210,"Bethel Island","CA",38.032167,-121.646797
"1534",6,6308,"Beverly Hills","CA",34.07925,-118.401368
"1535",6,6406,"Big Bear City","CA",34.266342,-116.84553
"1536",6,6434,"Big Bear Lake","CA",34.24369,-116.894483
"1537",6,6560,"Biggs","CA",39.413933,-121.709232
"1538",6,6616,"Big Pine","CA",37.165447,-118.295386
"1539",6,6635,"Big River","CA",34.140099,-114.360545
"1540",6,6798,"Bishop","CA",37.367696,-118.396804
"1541",6,6928,"Blackhawk","CA",37.818283,-121.907347
"1542",6,7064,"Bloomington","CA",34.05945,-117.397849
"1543",6,7162,"Blue Lake","CA",40.880236,-123.991588
"1544",6,7172,"Bluewater","CA",34.174558,-114.270658
"1545",6,7218,"Blythe","CA",33.609383,-114.590083
"1546",6,7260,"Bodega Bay","CA",38.322798,-123.029788
"1547",6,7274,"Bodfish","CA",35.582538,-118.48278
"1548",6,7316,"Bolinas","CA",37.9056,-122.696993
"1549",6,7379,"Bonadelle Ranchos-Madera","CA",36.959752,-119.895761
"1550",6,7414,"Bonita","CA",32.667483,-117.029885
"1551",6,7498,"Bonsall","CA",33.283051,-117.219976
"1552",6,7525,"Bootjack","CA",37.469708,-119.883104
"1553",6,7568,"Boron","CA",35.004921,-117.650339
"1554",6,7596,"Borrego Springs","CA",33.238707,-116.354538
"1555",6,7624,"Bostonia","CA",32.819757,-116.945731
"1556",6,7652,"Boulder Creek","CA",37.1375,-122.127873
"1557",6,7848,"Boyes Hot Springs","CA",38.31305,-122.485011
"1558",6,7946,"Bradbury","CA",34.15249,-117.968406
"1559",6,8058,"Brawley","CA",32.97983,-115.533373
"1560",6,8100,"Brea","CA",33.923567,-117.867211
"1561",6,8142,"Brentwood","CA",37.933626,-121.708636
"1562",6,8310,"Brisbane","CA",37.689317,-122.399928
"1563",6,8338,"Broadmoor","CA",37.6917,-122.479566
"1564",6,8758,"Buellton","CA",34.625929,-120.201215
"1565",6,8786,"Buena Park","CA",33.8577,-118.003274
"1566",6,8954,"Burbank","CA",34.191317,-118.325713
"1567",6,8968,"Burbank","CA",37.316403,-121.931747
"1568",6,9066,"Burlingame","CA",37.5903,-122.362596
"1569",6,9122,"Burney","CA",40.884312,-121.668689
"1570",6,9332,"Buttonwillow","CA",35.401758,-119.469806
"1571",6,9360,"Cabazon","CA",33.911405,-116.771744
"1572",6,9710,"Calexico","CA",32.678473,-115.500754
"1573",6,9780,"California City","CA",35.189303,-117.811549
"1574",6,9864,"Calimesa","CA",33.9959,-117.045148
"1575",6,9878,"Calipatria","CA",33.127239,-115.51763
"1576",6,9892,"Calistoga","CA",38.58145,-122.581663
"1577",6,10046,"Camarillo","CA",34.22255,-119.029434
"1578",6,10074,"Cambria","CA",35.546548,-121.079872
"1579",6,10088,"Cambrian Park","CA",37.25565,-121.927849
"1580",6,10256,"Cameron Park","CA",38.681727,-120.987207
"1581",6,10340,"Campbell","CA",37.2788,-121.95335
"1582",6,10559,"Camp Pendleton North","CA",33.313998,-117.314552
"1583",6,10564,"Camp Pendleton South","CA",33.233315,-117.373547
"1584",6,10928,"Canyon Lake","CA",33.683493,-117.253358
"1585",6,11040,"Capitola","CA",36.97605,-121.952975
"1586",6,11194,"Carlsbad","CA",33.123826,-117.285865
"1587",6,11250,"Carmel-by-the-Sea","CA",36.55335,-121.920949
"1588",6,11324,"Carmel Valley Village","CA",36.486245,-121.722892
"1589",6,11390,"Carmichael","CA",38.63395,-121.318774
"1590",6,11446,"Carpinteria","CA",34.3879,-119.513217
"1591",6,11530,"Carson","CA",33.836183,-118.257889
"1592",6,11614,"Caruthers","CA",36.5418,-119.841688
"1593",6,11656,"Casa Conejo","CA",34.183603,-118.9425
"1594",6,11691,"Casa de Oro-Mount Helix C","CA",32.765401,-116.938076
"1595",6,11964,"Castro Valley","CA",37.71095,-122.061114
"1596",6,11978,"Castroville","CA",36.76405,-121.751849
"1597",6,12048,"Cathedral City","CA",33.830833,-116.463409
"1598",6,12132,"Cayucos","CA",35.437951,-120.884804
"1599",6,12468,"Central Valley","CA",40.679596,-122.374912
"1600",6,12524,"Ceres","CA",37.599351,-120.956232
"1601",6,12552,"Cerritos","CA",33.867603,-118.068402
"1602",6,12612,"Challenge-Brownsville","CA",39.461514,-121.258945
"1603",6,12669,"Channel Islands Beach","CA",34.15805,-119.222101
"1604",6,12734,"Charter Oak","CA",34.1024,-117.853849
"1605",6,12902,"Cherryland","CA",37.67935,-122.102268
"1606",6,12916,"Cherry Valley","CA",33.97245,-116.965307
"1607",6,12930,"Chester","CA",40.300372,-121.233191
"1608",6,13014,"Chico","CA",39.753803,-121.806931
"1609",6,13210,"Chino","CA",34.0069,-117.685998
"1610",6,13214,"Chino Hills","CA",33.974789,-117.748651
"1611",6,13294,"Chowchilla","CA",37.115422,-120.256583
"1612",6,13392,"Chula Vista","CA",32.62845,-117.044733
"1613",6,13560,"Citrus","CA",34.114883,-117.890891
"1614",6,13588,"Citrus Heights","CA",38.69165,-121.286669
"1615",6,13756,"Claremont","CA",34.12185,-117.715734
"1616",6,13882,"Clayton","CA",37.940983,-121.928938
"1617",6,13945,"Clearlake","CA",38.958202,-122.631587
"1618",6,13966,"Clearlake Oaks","CA",39.022531,-122.665069
"1619",6,14190,"Cloverdale","CA",38.799681,-123.017422
"1620",6,14218,"Clovis","CA",36.819633,-119.696023
"1621",6,14260,"Coachella","CA",33.680933,-116.152291
"1622",6,14274,"Coalinga","CA",36.142446,-120.3546
"1623",6,14302,"Cobb","CA",38.837819,-122.724147
"1624",6,14498,"Colfax","CA",39.095268,-120.953169
"1625",6,14736,"Colma","CA",37.673833,-122.45342
"1626",6,14890,"Colton","CA",34.0579,-117.322002
"1627",6,14904,"Columbia","CA",38.026745,-120.401805
"1628",6,14946,"Colusa","CA",39.206097,-122.01133
"1629",6,14974,"Commerce","CA",33.995367,-118.150241
"1630",6,15044,"Compton","CA",33.89255,-118.226527
"1631",6,16000,"Concord","CA",37.97325,-121.99987
"1632",6,16035,"Concow","CA",39.745901,-121.493635
"1633",6,16224,"Corcoran","CA",36.081844,-119.55999
"1634",6,16322,"Corning","CA",39.926338,-122.182001
"1635",6,16350,"Corona","CA",33.8679,-117.569693
"1636",6,16378,"Coronado","CA",32.630757,-117.173682
"1637",6,16434,"Corralitos","CA",36.996633,-121.798644
"1638",6,16462,"Corte Madera","CA",37.923615,-122.507319
"1639",6,16532,"Costa Mesa","CA",33.66685,-117.912649
"1640",6,16560,"Cotati","CA",38.327793,-122.709471
"1641",6,16580,"Coto De Caza","CA",33.604119,-117.586042
"1642",6,16630,"Cottonwood","CA",40.390318,-122.279978
"1643",6,16651,"Country Club","CA",37.968973,-121.339679
"1644",6,16728,"Covelo","CA",39.800185,-123.247762
"1645",6,16742,"Covina","CA",34.09015,-117.881072
"1646",6,17022,"Crescent City","CA",41.754127,-124.19783
"1647",6,17030,"Crescent City North","CA",41.763674,-124.214092
"1648",6,17162,"Crestline","CA",34.246674,-117.295756
"1649",6,17274,"Crockett","CA",38.051076,-122.219432
"1650",6,17498,"Cudahy","CA",33.9642,-118.181671
"1651",6,17568,"Culver City","CA",34.0058,-118.396116
"1652",6,17610,"Cupertino","CA",37.314403,-122.047333
"1653",6,17708,"Cutler","CA",36.526687,-119.287222
"1654",6,17722,"Cutten","CA",40.767442,-124.141997
"1655",6,17750,"Cypress","CA",33.81635,-118.037911
"1656",6,17918,"Daly City","CA",37.687,-122.467432
"1657",6,17946,"Dana Point","CA",33.457,-117.696337
"1658",6,17988,"Danville","CA",37.8144,-121.971381
"1659",6,18100,"Davis","CA",38.55495,-121.735946
"1660",6,18153,"Day Valley","CA",37.035846,-121.861259
"1661",6,18324,"Deer Park","CA",38.532767,-122.468616
"1662",6,18352,"Del Aire","CA",33.916083,-118.368633
"1663",6,18394,"Delano","CA",35.764844,-119.250428
"1664",6,18464,"Delhi","CA",37.43413,-120.776917
"1665",6,18506,"Del Mar","CA",32.9649,-117.262449
"1666",6,18590,"Del Monte Forest","CA",36.586251,-121.946294
"1667",6,18674,"Del Rey","CA",36.65775,-119.595985
"1668",6,18688,"Del Rey Oaks","CA",36.592791,-121.837299
"1669",6,18856,"Denair","CA",37.529602,-120.800139
"1670",6,18996,"Desert Hot Springs","CA",33.959148,-116.50018
"1671",6,19052,"Desert View Highlands","CA",34.589749,-118.152606
"1672",6,19192,"Diamond Bar","CA",33.999403,-117.814277
"1673",6,19220,"Diamond Springs","CA",38.68596,-120.821557
"1674",6,19318,"Dinuba","CA",36.545611,-119.38731
"1675",6,19339,"Discovery Bay","CA",37.908783,-121.59522
"1676",6,19402,"Dixon","CA",38.4447,-121.823749
"1677",6,19406,"Dixon Lane-Meadow Creek C","CA",37.387329,-118.412499
"1678",6,19455,"Dollar Point","CA",39.189739,-120.108411
"1679",6,19584,"Dorris","CA",41.965194,-121.919952
"1680",6,19612,"Dos Palos","CA",36.986524,-120.636821
"1681",6,19766,"Downey","CA",33.93815,-118.129899
"1682",6,19990,"Duarte","CA",34.157833,-117.953118
"1683",6,20018,"Dublin","CA",37.715911,-121.909908
"1684",6,20242,"Dunsmuir","CA",41.233544,-122.269889
"1685",6,20270,"Durham","CA",39.599528,-121.827678
"1686",6,20438,"Earlimart","CA",35.880858,-119.270535
"1687",6,20536,"East Blythe","CA",33.611706,-114.577309
"1688",6,20550,"East Compton","CA",33.8981,-118.194323
"1689",6,20598,"East Foothills","CA",37.381133,-121.816431
"1690",6,20697,"East Hemet","CA",33.73995,-116.937999
"1691",6,20746,"East La Mirada","CA",33.92439,-117.988079
"1692",6,20802,"East Los Angeles","CA",34.03265,-118.168562
"1693",6,20928,"Easton","CA",36.6517,-119.788869
"1694",6,20956,"East Palo Alto","CA",37.46605,-122.132199
"1695",6,20984,"East Pasadena","CA",34.13825,-118.076824
"1696",6,21012,"East Porterville","CA",36.0574,-118.974699
"1697",6,21061,"East Richmond Heights","CA",37.9451,-122.312599
"1698",6,21096,"East San Gabriel","CA",34.11985,-118.079696
"1699",6,21188,"East Sonora","CA",37.98053,-120.339296
"1700",6,21600,"Edwards AFB","CA",34.90962,-117.934573
"1701",6,21712,"El Cajon","CA",32.80245,-116.960849
"1702",6,21782,"El Centro","CA",32.787145,-115.559374
"1703",6,21796,"El Cerrito","CA",37.9205,-122.30207
"1704",6,21810,"El Cerrito","CA",33.840133,-117.521899
"1705",6,21880,"El Dorado Hills","CA",38.685856,-121.080976
"1706",6,21894,"Eldridge","CA",38.335182,-122.506871
"1707",6,21936,"El Granada","CA",37.509667,-122.466581
"1708",6,22020,"Elk Grove","CA",38.400767,-121.367488
"1709",6,22034,"Elkhorn","CA",36.81085,-121.717472
"1710",6,22230,"El Monte","CA",34.0748,-118.027797
"1711",6,22300,"El Paso de Robles (Paso R","CA",35.632279,-120.664187
"1712",6,22370,"El Rio","CA",34.24265,-119.158731
"1713",6,22412,"El Segundo","CA",33.910563,-118.424817
"1714",6,22454,"El Sobrante","CA",37.97663,-122.292614
"1715",6,22468,"El Toro","CA",33.647067,-117.682728
"1716",6,22482,"El Toro Station","CA",33.679176,-117.718429
"1717",6,22510,"El Verano","CA",38.29774,-122.489391
"1718",6,22587,"Emerald Lake Hills","CA",37.4646,-122.266922
"1719",6,22594,"Emeryville","CA",37.839083,-122.299343
"1720",6,22678,"Encinitas","CA",33.047655,-117.262552
"1721",6,22790,"Escalon","CA",37.789488,-120.996215
"1722",6,22804,"Escondido","CA",33.136445,-117.07127
"1723",6,22846,"Esparto","CA",38.693728,-122.021158
"1724",6,22972,"Etna","CA",41.459278,-122.892843
"1725",6,23042,"Eureka","CA",40.795319,-124.155679
"1726",6,23126,"Exeter","CA",36.294587,-119.143026
"1727",6,23168,"Fairfax","CA",37.988633,-122.593828
"1728",6,23182,"Fairfield","CA",38.2525,-122.041655
"1729",6,23294,"Fair Oaks","CA",38.6485,-121.247178
"1730",6,23350,"Fairview","CA",37.678633,-122.04464
"1731",6,23462,"Fallbrook","CA",33.3686,-117.237752
"1732",6,23616,"Farmersville","CA",36.304148,-119.206868
"1733",6,23826,"Felton","CA",37.0427,-122.072192
"1734",6,23910,"Ferndale","CA",40.579486,-124.260625
"1735",6,23973,"Fetters Hot Springs-Agua","CA",38.322267,-122.479784
"1736",6,24092,"Fillmore","CA",34.40016,-118.918476
"1737",6,24134,"Firebaugh","CA",36.849218,-120.448936
"1738",6,24477,"Florence-Graham","CA",33.96705,-118.244374
"1739",6,24498,"Florin","CA",38.49065,-121.404395
"1740",6,24638,"Folsom","CA",38.676712,-121.146231
"1741",6,24680,"Fontana","CA",34.097733,-117.45734
"1742",6,24722,"Foothill Farms","CA",38.677589,-121.346716
"1743",6,24764,"Ford City","CA",35.166489,-119.458412
"1744",6,24834,"Foresthill","CA",38.999421,-120.832107
"1745",6,24960,"Forestville","CA",38.481133,-122.888583
"1746",6,25058,"Fort Bragg","CA",39.442277,-123.802906
"1747",6,25128,"Fort Jones","CA",41.607051,-122.839824
"1748",6,25296,"Fortuna","CA",40.585811,-124.139668
"1749",6,25338,"Foster City","CA",37.563806,-122.244666
"1750",6,25380,"Fountain Valley","CA",33.7109,-117.950324
"1751",6,25436,"Fowler","CA",36.6247,-119.672261
"1752",6,25534,"Frazier Park","CA",34.82212,-118.945313
"1753",6,25576,"Freedom","CA",36.940033,-121.789321
"1754",6,26000,"Fremont","CA",37.528506,-121.997122
"1755",6,26028,"French Camp","CA",37.882817,-121.278733
"1756",6,27000,"Fresno","CA",36.7806,-119.792874
"1757",6,28000,"Fullerton","CA",33.8848,-117.928054
"1758",6,28112,"Galt","CA",38.26864,-121.301165
"1759",6,28168,"Gardena","CA",33.8936,-118.304849
"1760",6,28182,"Garden Acres","CA",37.9639,-121.228317
"1761",6,29000,"Garden Grove","CA",33.77875,-117.959375
"1762",6,29336,"George AFB","CA",34.581726,-117.366487
"1763",6,29399,"Gerber-Las Flores","CA",40.061481,-122.149355
"1764",6,29504,"Gilroy","CA",37.0101,-121.57809
"1765",6,29644,"Glen Avon","CA",34.01735,-117.487637
"1766",6,30000,"Glendale","CA",34.17672,-118.253257
"1767",6,30014,"Glendora","CA",34.14605,-117.843941
"1768",6,30028,"Glen Ellen","CA",38.3558,-122.538362
"1769",6,30156,"Glenshire-Devonshire","CA",39.350502,-120.087529
"1770",6,30282,"Golden Hills","CA",35.142495,-118.489348
"1771",6,30392,"Gonzales","CA",36.50653,-121.442551
"1772",6,30658,"Grand Terrace","CA",34.030567,-117.314481
"1773",6,30703,"Granite Hills","CA",32.803,-116.903759
"1774",6,30798,"Grass Valley","CA",39.22146,-121.05667
"1775",6,30812,"Graton","CA",38.4377,-122.865271
"1776",6,30938,"Greenacres","CA",35.383459,-119.125744
"1777",6,30994,"Greenfield","CA",36.321675,-121.242393
"1778",6,31162,"Greenville","CA",40.13576,-120.937881
"1779",6,31260,"Gridley","CA",39.364373,-121.695158
"1780",6,31375,"Groveland-Big Oak Flat CD","CA",37.845543,-120.196422
"1781",6,31400,"Grover City","CA",35.120958,-120.618527
"1782",6,31414,"Guadalupe","CA",34.963509,-120.574683
"1783",6,31470,"Guerneville","CA",38.508058,-122.984863
"1784",6,31568,"Gustine","CA",37.252508,-120.993198
"1785",6,31596,"Hacienda Heights","CA",33.99575,-117.971372
"1786",6,31708,"Half Moon Bay","CA",37.470116,-122.436896
"1787",6,31890,"Hamilton City","CA",39.742271,-122.011657
"1788",6,31960,"Hanford","CA",36.32504,-119.646935
"1789",6,32044,"Harbison Canyon","CA",32.819371,-116.829472
"1790",6,32506,"Hawaiian Gardens","CA",33.83045,-118.071874
"1791",6,32548,"Hawthorne","CA",33.91465,-118.347049
"1792",6,32562,"Hayfork","CA",40.573872,-123.125268
"1793",6,33000,"Hayward","CA",37.627667,-122.104602
"1794",6,33056,"Healdsburg","CA",38.618497,-122.862762
"1795",6,33084,"Heber","CA",32.734137,-115.520123
"1796",6,33182,"Hemet","CA",33.731603,-116.997758
"1797",6,33308,"Hercules","CA",38.020433,-122.296894
"1798",6,33364,"Hermosa Beach","CA",33.85167,-118.422709
"1799",6,33434,"Hesperia","CA",34.419075,-117.302401
"1800",6,33518,"Hidden Hills","CA",34.167552,-118.659997
"1801",6,33532,"Hidden Meadows","CA",33.225153,-117.111703
"1802",6,33549,"Hidden Valley Lake","CA",38.808482,-122.517282
"1803",6,33574,"Highgrove","CA",34.014548,-117.328035
"1804",6,33588,"Highland","CA",34.1173,-117.189141
"1805",6,33632,"Highlands","CA",37.5199,-122.342779
"1806",6,33798,"Hillsborough","CA",37.55755,-122.356241
"1807",6,33861,"Hilmar-Irwin","CA",37.405598,-120.850608
"1808",6,34120,"Hollister","CA",36.855501,-121.399055
"1809",6,34246,"Holtville","CA",32.813668,-115.377342
"1810",6,34281,"Home Garden","CA",36.303319,-119.635254
"1811",6,34302,"Home Gardens","CA",33.8809,-117.513154
"1812",6,34316,"Homeland","CA",33.748467,-117.108576
"1813",6,34904,"Hughson","CA",37.601001,-120.8667
"1814",6,34928,"Humboldt Hill","CA",40.726199,-124.18856
"1815",6,36000,"Huntington Beach","CA",33.691755,-118.008115
"1816",6,36056,"Huntington Park","CA",33.9803,-118.215149
"1817",6,36084,"Huron","CA",36.203342,-120.095367
"1818",6,36126,"Hydesville","CA",40.548669,-124.087099
"1819",6,36203,"Idyllwild-Pine Cove","CA",33.747262,-116.723161
"1820",6,36280,"Imperial","CA",32.840509,-115.571025
"1821",6,36294,"Imperial Beach","CA",32.5702,-117.118599
"1822",6,36434,"Indian Wells","CA",33.705396,-116.340565
"1823",6,36448,"Indio","CA",33.7198,-116.228649
"1824",6,36490,"Industry","CA",34.0134,-117.921535
"1825",6,36546,"Inglewood","CA",33.95585,-118.343649
"1826",6,36613,"Interlaken","CA",36.951378,-121.732857
"1827",6,36616,"Inverness","CA",38.08507,-122.841089
"1828",6,36672,"Ione","CA",38.359575,-120.941374
"1829",6,36770,"Irvine","CA",33.662114,-117.795807
"1830",6,36826,"Irwindale","CA",34.111933,-117.967557
"1831",6,36868,"Isla Vista","CA",34.4161,-119.856749
"1832",6,36882,"Isleton","CA",38.161394,-121.604257
"1833",6,36910,"Ivanhoe","CA",36.389309,-119.218685
"1834",6,36980,"Jackson","CA",38.3505,-120.77352
"1835",6,37106,"Jamestown","CA",37.957312,-120.413861
"1836",6,37120,"Jamul","CA",32.720238,-116.888775
"1837",6,37554,"Joshua Tree","CA",34.12695,-116.317756
"1838",6,37582,"Julian","CA",33.073116,-116.587389
"1839",6,38044,"Kelseyville","CA",38.958092,-122.824467
"1840",6,38086,"Kensington","CA",37.908233,-122.277319
"1841",6,38114,"Kentfield","CA",37.950317,-122.547408
"1842",6,38226,"Kerman","CA",36.724169,-120.061033
"1843",6,38310,"Kernville","CA",35.761605,-118.430066
"1844",6,38394,"Kettleman City","CA",36.008697,-119.961919
"1845",6,38422,"Keyes","CA",37.564183,-120.917407
"1846",6,38520,"King City","CA",36.21298,-121.128224
"1847",6,38548,"Kings Beach","CA",39.248111,-120.017701
"1848",6,38562,"Kingsburg","CA",36.5195,-119.554794
"1849",6,38702,"Klamath","CA",41.52252,-123.996561
"1850",6,39003,"La Canada Flintridge","CA",34.21055,-118.200441
"1851",6,39045,"La Crescenta-Montrose","CA",34.23385,-118.235207
"1852",6,39108,"Ladera Heights","CA",33.99405,-118.374499
"1853",6,39122,"Lafayette","CA",37.893833,-122.117915
"1854",6,39173,"Laguna","CA",38.421129,-121.422661
"1855",6,39178,"Laguna Beach","CA",33.5399,-117.760721
"1856",6,39220,"Laguna Hills","CA",33.599767,-117.710878
"1857",6,39248,"Laguna Niguel","CA",33.526533,-117.704318
"1858",6,39283,"Lagunitas-Forest Knolls C","CA",38.015233,-122.687599
"1859",6,39290,"La Habra","CA",33.9274,-117.950599
"1860",6,39304,"La Habra Heights","CA",33.962033,-117.950291
"1861",6,39444,"Lake Arrowhead","CA",34.262276,-117.188543
"1862",6,39486,"Lake Elsinore","CA",33.668985,-117.321481
"1863",6,39570,"Lake Isabella","CA",35.615154,-118.46572
"1864",6,39598,"Lakeland Village","CA",33.638291,-117.344827
"1865",6,39612,"Lake Los Angeles","CA",34.611896,-117.826891
"1866",6,39670,"Lake Nacimiento","CA",35.72846,-120.878545
"1867",6,39690,"Lake Of The Pines","CA",39.038675,-121.060297
"1868",6,39710,"Lakeport","CA",39.042281,-122.919875
"1869",6,39724,"Lake San Marcos","CA",33.119057,-117.209133
"1870",6,39766,"Lakeside","CA",32.849043,-116.909924
"1871",6,39836,"Lakeview","CA",33.828088,-117.123818
"1872",6,39892,"Lakewood","CA",33.8488,-118.122049
"1873",6,40004,"La Mesa","CA",32.7696,-117.01887
"1874",6,40032,"La Mirada","CA",33.902117,-118.008766
"1875",6,40088,"Lamont","CA",35.264088,-118.914015
"1876",6,40130,"Lancaster","CA",34.693064,-118.176425
"1877",6,40256,"La Palma","CA",33.85085,-118.038699
"1878",6,40340,"La Puente","CA",34.0325,-117.95225
"1879",6,40354,"La Quinta","CA",33.67136,-116.292241
"1880",6,40410,"La Riviera","CA",38.566867,-121.35571
"1881",6,40426,"Larkfield-Wikiup","CA",38.513386,-122.752478
"1882",6,40438,"Larkspur","CA",37.94115,-122.529154
"1883",6,40592,"Las Lomas","CA",36.8688,-121.73098
"1884",6,40704,"Lathrop","CA",37.8209,-121.276624
"1885",6,40746,"Laton","CA",36.43395,-119.68888
"1886",6,40830,"La Verne","CA",34.118233,-117.770949
"1887",6,40886,"Lawndale","CA",33.88835,-118.352649
"1888",6,40928,"Laytonville","CA",39.674675,-123.495218
"1889",6,41040,"Le Grand","CA",37.219121,-120.260538
"1890",6,41124,"Lemon Grove","CA",32.7334,-117.032841
"1891",6,41152,"Lemoore","CA",36.298625,-119.787481
"1892",6,41166,"Lemoore Station","CA",36.26441,-119.90374
"1893",6,41180,"Lennox","CA",33.9398,-118.357651
"1894",6,41194,"Lenwood","CA",34.885777,-117.103606
"1895",6,41278,"Lewiston","CA",40.699233,-122.802019
"1896",6,41282,"Lexington Hills","CA",37.164833,-121.971842
"1897",6,41474,"Lincoln","CA",38.89917,-121.316491
"1898",6,41558,"Lincoln Village","CA",38.0042,-121.333485
"1899",6,41572,"Linda","CA",39.122847,-121.55472
"1900",6,41670,"Linden","CA",38.018867,-121.099938
"1901",6,41712,"Lindsay","CA",36.206261,-119.088848
"1902",6,41880,"Littlerock","CA",34.52508,-117.984751
"1903",6,41922,"Live Oak","CA",36.9837,-121.979536
"1904",6,41936,"Live Oak","CA",39.273598,-121.661287
"1905",6,41992,"Livermore","CA",37.691926,-121.763663
"1906",6,42006,"Livingston","CA",37.388026,-120.721484
"1907",6,42104,"Lockeford","CA",38.151554,-121.15554
"1908",6,42202,"Lodi","CA",38.12325,-121.294424
"1909",6,42370,"Loma Linda","CA",34.04415,-117.249034
"1910",6,42412,"Loma Rica","CA",39.318711,-121.400357
"1911",6,42468,"Lomita","CA",33.7934,-118.317249
