"fips_st","fips_place","city","state","latitude","longitude"
1,460,"Adamsville","AL",33.595542,-86.957993
1,484,"Addison","AL",34.19994,-87.177921
1,676,"Akron","AL",32.876118,-87.738779
1,820,"Alabaster","AL",33.226547,-86.82462
1,988,"Albertville","AL",34.262453,-86.209414
1,1132,"Alexander City","AL",32.927015,-85.934009
1,1228,"Aliceville","AL",33.125078,-88.157999
1,1396,"Allgood","AL",33.90643,-86.518044
1,1660,"Altoona","AL",34.031381,-86.313552
1,1708,"Andalusia","AL",31.307638,-86.48144
1,1756,"Anderson","AL",34.91351,-87.270552
1,1852,"Anniston","AL",33.66265,-85.813937
1,2116,"Arab","AL",34.329635,-86.500127
1,2260,"Ardmore","AL",34.98336,-86.836627
1,2320,"Argo","AL",33.686661,-86.51003
1,2428,"Ariton","AL",31.598373,-85.715372
1,2500,"Arley","AL",34.084983,-87.210631
1,2836,"Ashford","AL",31.185801,-85.234603
1,2860,"Ashland","AL",33.270967,-85.8307
1,2908,"Ashville","AL",33.834691,-86.264011
1,2956,"Athens","AL",34.786009,-86.959899
1,3004,"Atmore","AL",31.021694,-87.495438
1,3028,"Attalla","AL",34.009983,-86.101863
1,3076,"Auburn","AL",32.5929,-85.480322
1,3220,"Autaugaville","AL",32.430993,-86.655798
1,3364,"Avon","AL",31.180293,-85.276624
1,3556,"Babbie","AL",31.300292,-86.31934
1,3676,"Baileyton","AL",34.262079,-86.613498
1,3940,"Banks","AL",31.814278,-85.838337
1,4660,"Bay Minette","AL",30.880776,-87.776975
1,4684,"Bayou La Batre","AL",30.403663,-88.250086
1,4852,"Bear Creek","AL",34.260539,-87.715574
1,4900,"Beatrice","AL",31.733754,-87.209042
1,4948,"Beaverton","AL",33.93433,-88.021408
1,5164,"Belk","AL",33.648083,-87.927732
1,5692,"Benton","AL",32.307439,-86.817579
1,5932,"Berry","AL",33.663185,-87.607693
1,5980,"Bessemer","AL",33.375236,-86.960601
1,6460,"Billingsley","AL",32.660336,-86.708534
1,7000,"Birmingham","AL",33.527746,-86.799223
1,7120,"Black","AL",31.009386,-85.74321
1,7456,"Blountsville","AL",34.080871,-86.588414
1,7552,"Blue Mountain","AL",33.688517,-85.837612
1,7588,"Blue Ridge","AL",32.492484,-86.190617
1,7672,"Blue Springs","AL",31.660501,-85.503092
1,7912,"Boaz","AL",34.202618,-86.155491
1,8104,"Boligee","AL",32.753,-88.024254
1,8248,"Bon Air","AL",33.261319,-86.338052
1,8920,"Branchville","AL",33.66112,-86.427038
1,9016,"Brantley","AL",31.581672,-86.256677
1,9136,"Brent","AL",32.942269,-87.176219
1,9208,"Brewton","AL",31.114611,-87.072837
1,9328,"Bridgeport","AL",34.944425,-85.719003
1,9400,"Brighton","AL",33.43885,-86.945474
1,9424,"Brilliant","AL",34.016723,-87.77581
1,9736,"Brookside","AL",33.631931,-86.914741
1,9808,"Brookwood","AL",33.247178,-87.323908
1,10240,"Brundidge","AL",31.718862,-85.815274
1,11032,"Butler","AL",32.093844,-88.216721
1,11128,"Bynum","AL",33.605546,-85.957464
1,11248,"Cahaba Heights","AL",33.4596,-86.728199
1,11416,"Calera","AL",33.101269,-86.753675
1,11512,"Camden","AL",32.002958,-87.298274
1,11680,"Camp Hill","AL",32.800119,-85.653335
1,12016,"Carbon Hill","AL",33.895817,-87.525037
1,12040,"Cardiff","AL",33.646128,-86.92896
1,12160,"Carolina","AL",31.231348,-86.52065
1,12304,"Carrollton","AL",33.261794,-88.095124
1,12496,"Castleberry","AL",31.29978,-87.028508
1,12760,"Cedar Bluff","AL",34.220512,-85.596037
1,13264,"Center Point","AL",33.643133,-86.678764
1,13648,"Centre","AL",34.153021,-85.671733
1,13672,"Centreville","AL",32.95889,-87.132713
1,14008,"Chatom","AL",31.469889,-88.25378
1,14104,"Chelsea","AL",33.326283,-86.637432
1,14152,"Cherokee","AL",34.756365,-87.966692
1,14392,"Chickasaw","AL",30.77255,-88.084086
1,14464,"Childersburg","AL",33.279405,-86.353329
1,15064,"Citronelle","AL",31.096088,-88.249861
1,15136,"Clanton","AL",32.840013,-86.624704
1,15304,"Clayhatchee","AL",31.23757,-85.712745
1,15376,"Clayton","AL",31.880663,-85.451167
1,15472,"Cleveland","AL",33.994936,-86.570521
1,15640,"Clio","AL",31.709276,-85.610549
1,16240,"Coffee Springs","AL",31.166567,-85.909898
1,16264,"Coffeeville","AL",31.764206,-88.088292
1,16600,"Collinsville","AL",34.266551,-85.863044
1,16684,"Colony","AL",33.941382,-86.901185
1,16744,"Columbia","AL",31.297227,-85.109066
1,16768,"Columbiana","AL",33.177005,-86.600822
1,17176,"Coosada","AL",32.495833,-86.330192
1,17368,"Cordova","AL",33.76065,-87.192757
1,17824,"Cottonwood","AL",31.055584,-85.301372
1,17968,"County Line","AL",33.820967,-86.722833
1,17992,"County Line","AL",31.284426,-86.200746
1,18040,"Courtland","AL",34.668861,-87.316645
1,18088,"Cowarts","AL",31.199398,-85.30634
1,18304,"Creola","AL",30.8969,-88.009802
1,18856,"Crossville","AL",34.286278,-85.993551
1,18952,"Cuba","AL",32.440602,-88.374257
1,18976,"Cullman","AL",34.176059,-86.838934
1,19336,"Dadeville","AL",32.831922,-85.765204
1,19360,"Daleville","AL",31.300833,-85.716212
1,19648,"Daphne","AL",30.626933,-87.897286
1,19744,"Dauphin Island","AL",30.249243,-88.172996
1,19816,"Daviston","AL",33.05513,-85.639208
1,19912,"Dayton","AL",32.351726,-87.642865
1,20104,"Decatur","AL",34.571833,-86.988166
1,20296,"Demopolis","AL",32.500546,-87.83417
1,20392,"Detroit","AL",34.026203,-88.168793
1,21136,"Dora","AL",33.731426,-87.083205
1,21184,"Dothan","AL",31.23595,-85.405299
1,21280,"Double Springs","AL",34.148362,-87.403137
1,21328,"Douglas","AL",34.171471,-86.321247
1,21448,"Dozier","AL",31.503627,-86.37166
1,21952,"Dutton","AL",34.607554,-85.915588
1,22216,"East Brewton","AL",31.09058,-87.05531
1,22816,"Eclectic","AL",32.636763,-86.03474
1,23176,"Edwardsville","AL",33.706678,-85.509838
1,23296,"Elba","AL",31.417151,-86.075176
1,23320,"Elberta","AL",30.413442,-87.60079
1,23344,"Eldridge","AL",33.921959,-87.619773
1,23488,"Elkmont","AL",34.928429,-86.975875
1,23872,"Emelle","AL",32.728537,-88.315248
1,24184,"Enterprise","AL",31.329809,-85.846454
1,24256,"Epes","AL",32.691719,-88.125964
1,24472,"Ethelsville","AL",33.414193,-88.216261
1,24568,"Eufaula","AL",31.909278,-85.150353
1,24616,"Eunola","AL",31.038587,-85.845481
1,24664,"Eutaw","AL",32.840605,-87.89148
1,24688,"Eva","AL",34.330415,-86.755855
1,24808,"Evergreen","AL",31.437392,-86.955023
1,24880,"Excel","AL",31.426167,-87.342419
1,25120,"Fairfield","AL",33.473,-86.917717
1,25240,"Fairhope","AL",30.514468,-87.884052
1,25384,"Fairview","AL",34.24679,-86.687441
1,25648,"Falkville","AL",34.376935,-86.90972
1,25816,"Faunsdale","AL",32.459085,-87.593247
1,25840,"Fayette","AL",33.694009,-87.831361
1,26200,"Five Points","AL",33.017066,-85.351261
1,26800,"Flint City","AL",34.5155,-86.972787
1,26824,"Flomaton","AL",31.016388,-87.254564
1,26848,"Florala","AL",31.021113,-86.308454
1,26896,"Florence","AL",34.82785,-87.665057
1,26992,"Foley","AL",30.405662,-87.684233
1,27088,"Forestdale","AL",33.57925,-86.902874
1,27376,"Forkland","AL",32.647569,-87.867223
1,27520,"Fort Deposit","AL",31.985854,-86.576236
1,27544,"Fort McClellan","AL",33.718825,-85.79072
1,27616,"Fort Payne","AL",34.453792,-85.69444
1,27640,"Fort Rucker","AL",31.343401,-85.715143
1,28024,"Franklin","AL",32.45525,-85.80279
1,28312,"Frisco City","AL",31.434326,-87.403563
1,28432,"Fruithurst","AL",33.730255,-85.43186
1,28504,"Fulton","AL",31.793557,-87.741064
1,28552,"Fultondale","AL",33.617286,-86.80009
1,28672,"Fyffe","AL",34.45098,-85.906355
1,28696,"Gadsden","AL",34.01,-86.014405
1,28768,"Gainesville","AL",32.815274,-88.159585
1,28936,"Gantt","AL",31.408724,-86.484638
1,28984,"Gantts Quarry","AL",33.148196,-86.299365
1,29032,"Garden City","AL",34.014782,-86.750077
1,29056,"Gardendale","AL",33.665221,-86.800561
1,29296,"Gaylesville","AL",34.267902,-85.558283
1,29392,"Geiger","AL",32.873693,-88.313368
1,29464,"Geneva","AL",31.036639,-85.876779
1,29560,"Georgiana","AL",31.636437,-86.74243
1,29608,"Geraldine","AL",34.360848,-86.002983
1,29704,"Gilbertown","AL",31.875678,-88.31878
1,29944,"Glen Allen","AL",33.884827,-87.744118
1,29992,"Glencoe","AL",33.946233,-85.931225
1,30160,"Glenwood","AL",31.666077,-86.172433
1,30448,"Goldville","AL",33.083497,-85.784431
1,30496,"Good Hope","AL",34.110133,-86.864567
1,30640,"Goodwater","AL",33.060438,-86.051507
1,30736,"Gordo","AL",33.321344,-87.903711
1,30760,"Gordon","AL",31.145641,-85.09435
1,30880,"Goshen","AL",31.719558,-86.125906
1,31024,"Grand Bay","AL",30.471944,-88.344293
1,31096,"Grant","AL",34.517212,-86.25227
1,31384,"Graysville","AL",33.6264,-86.969199
1,31720,"Greensboro","AL",32.700618,-87.594062
1,31912,"Greenville","AL",31.829719,-86.626699
1,32056,"Grimes","AL",31.302097,-85.451108
1,32080,"Grove Hill","AL",31.703793,-87.777428
1,32224,"Guin","AL",33.96609,-87.910549
1,32272,"Gulf Shores","AL",30.270036,-87.70146
1,32416,"Guntersville","AL",34.356757,-86.270409
1,32440,"Gurley","AL",34.703145,-86.373057
1,32536,"Gu-Win","AL",33.958234,-87.871663
1,32560,"Hackleburg","AL",34.274181,-87.833697
1,32656,"Haleburg","AL",31.410858,-85.138674
1,32704,"Haleyville","AL",34.238792,-87.618201
1,32848,"Hamilton","AL",34.140314,-87.982764
1,32896,"Hammondville","AL",34.56933,-85.638339
1,32968,"Hanceville","AL",34.064911,-86.763469
1,33256,"Harpersville","AL",33.341799,-86.432691
1,33424,"Hartford","AL",31.105115,-85.691343
1,33448,"Hartselle","AL",34.436916,-86.939815
1,33472,"Harvest","AL",34.855619,-86.749894
1,33640,"Hayden","AL",33.895328,-86.754358
1,33712,"Hayneville","AL",32.182473,-86.578835
1,33808,"Hazel Green","AL",34.923624,-86.567213
1,33856,"Headland","AL",31.351932,-85.343253
1,33904,"Heath","AL",31.355101,-86.466878
1,33976,"Heflin","AL",33.646285,-85.586732
1,34024,"Helena","AL",33.289736,-86.852423
1,34096,"Henagar","AL",34.633923,-85.737447
1,34480,"Highland Lake","AL",33.889234,-86.423815
1,34816,"Hillsboro","AL",34.636721,-87.184584
1,35152,"Hobson City","AL",33.617033,-85.851727
1,35200,"Hodges","AL",34.327387,-87.926532
1,35392,"Hokes Bluff","AL",33.98965,-85.86297
1,35560,"Holly Pond","AL",34.174561,-86.617011
1,35632,"Hollywood","AL",34.716877,-85.965711
1,35704,"Holt","AL",33.22955,-87.480949
1,35800,"Homewood","AL",33.4648,-86.806999
1,35896,"Hoover","AL",33.375332,-86.819037
1,36448,"Hueytown","AL",33.4376,-86.997586
1,36592,"Huguley","AL",32.843119,-85.240673
1,37000,"Huntsville","AL",34.707048,-86.627723
1,37096,"Hurtsboro","AL",32.239942,-85.414371
1,37312,"Ider","AL",34.700676,-85.666937
1,37756,"Inverness","AL",33.404139,-86.722944
1,37864,"Irondale","AL",33.532317,-86.676303
1,38152,"Jackson","AL",31.53254,-87.893012
1,38248,"Jacksons' Gap","AL",32.884143,-85.816998
1,38272,"Jacksonville","AL",33.81065,-85.760774
1,38416,"Jasper","AL",33.852042,-87.270067
1,38608,"Jemison","AL",32.964998,-86.744068
1,39280,"Kansas","AL",33.901778,-87.553343
1,39520,"Kennedy","AL",33.581421,-87.985506
1,39784,"Killen","AL",34.861501,-87.529349
1,39856,"Kimberly","AL",33.768213,-86.804802
1,40072,"Kinsey","AL",31.297409,-85.335936
1,40096,"Kinston","AL",31.219426,-86.169941
1,40648,"Ladonia","AL",32.462379,-85.086805
1,40672,"Lafayette","AL",32.899542,-85.400846
1,40806,"Lake Purdy","AL",33.429931,-86.680504
1,40888,"Lakeview","AL",34.392209,-85.97327
1,41296,"Lanett","AL",32.866205,-85.205117
1,41368,"Langston","AL",34.534187,-86.092361
1,41968,"Leeds","AL",33.545976,-86.562745
1,42016,"Leesburg","AL",34.178976,-85.769101
1,42160,"Leighton","AL",34.699553,-87.530673
1,42352,"Lester","AL",34.984221,-87.147896
1,42472,"Level Plains","AL",31.306357,-85.766718
1,42640,"Lexington","AL",34.966032,-87.372872
1,42808,"Libertyville","AL",31.243672,-86.460007
1,43120,"Lincoln","AL",33.59801,-86.139391
1,43240,"Linden","AL",32.301011,-87.792706
1,43264,"Lineville","AL",33.312421,-85.752616
1,43336,"Lipscomb","AL",33.4261,-86.925422
1,43384,"Lisman","AL",32.169306,-88.288072
1,43648,"Littleville","AL",34.595005,-87.674038
1,43720,"Livingston","AL",32.59881,-88.187144
1,43744,"Loachapoka","AL",32.604706,-85.596938
1,43816,"Lockhart","AL",31.012731,-86.350243
1,43888,"Locust Fork","AL",33.90265,-86.621682
1,44344,"Louisville","AL",31.781088,-85.558042
1,44536,"Lowndesboro","AL",32.276737,-86.610257
1,44608,"Loxley","AL",30.627129,-87.756379
1,44728,"Luverne","AL",31.707854,-86.261088
1,44800,"Lynn","AL",34.043769,-87.546695
1,45472,"McIntosh","AL",31.264812,-88.027882
1,45496,"McKenzie","AL",31.543754,-86.716532
1,45640,"McMullen","AL",33.147105,-88.176123
1,45784,"Madison","AL",34.702904,-86.749679
1,45904,"Madrid","AL",31.035769,-85.397282
1,46264,"Malvern","AL",31.135872,-85.51944
1,46504,"Maplesville","AL",32.785716,-86.878395
1,46696,"Margaret","AL",33.687702,-86.47466
1,46768,"Marion","AL",32.631553,-87.317598
1,47728,"Maytown","AL",33.551128,-86.995717
1,47740,"Meadowbrook","AL",33.401928,-86.696801
1,48052,"Memphis","AL",33.138332,-88.301314
1,48064,"Mentone","AL",34.568309,-85.582702
1,48112,"Meridianville","AL",34.87376,-86.570935
1,48376,"Midfield","AL",33.4541,-86.922808
1,48400,"Midland City","AL",31.316275,-85.493382
1,48424,"Midway","AL",32.074296,-85.520286
1,48616,"Mignon","AL",33.194043,-86.264008
1,48712,"Millbrook","AL",32.4946,-86.367721
1,48808,"Millport","AL",33.559467,-88.081194
1,48832,"Millry","AL",31.625865,-88.316669
1,49072,"Minor","AL",33.5253,-86.947612
1,50000,"Mobile","AL",30.67745,-88.088959
1,50192,"Monroeville","AL",31.516885,-87.327813
1,50312,"Montevallo","AL",33.109251,-86.851224
1,51000,"Montgomery","AL",32.3544,-86.284287
1,51096,"Moody","AL",33.596934,-86.494628
1,51216,"Moores Mill","AL",34.851888,-86.525755
1,51264,"Mooresville","AL",34.626832,-86.879986
1,51456,"Morris","AL",33.749733,-86.80534
1,51520,"Mosses","AL",32.176151,-86.674589
1,51600,"Moulton","AL",34.483899,-87.281139
1,51648,"Moundville","AL",32.995882,-87.63066
1,51672,"Mountainboro","AL",34.14771,-86.131208
1,51696,"Mountain Brook","AL",33.486867,-86.740477
1,52608,"Mount Vernon","AL",31.091175,-88.011747
1,52776,"Mulga","AL",33.546587,-86.975349
1,53016,"Muscle Shoals","AL",34.747117,-87.642039
1,53112,"Myrtlewood","AL",32.247111,-87.947127
1,53256,"Napier Field","AL",31.315115,-85.455306
1,53400,"Nauvoo","AL",33.988466,-87.4878
1,53448,"Nectar","AL",33.969026,-86.636264
1,53472,"Needham","AL",31.986189,-88.338772
1,53784,"Newbern","AL",32.591251,-87.535972
1,53856,"New Brockton","AL",31.38097,-85.924398
1,54168,"New Hope","AL",34.53914,-86.415896
1,54312,"New Market","AL",34.909465,-86.425117
1,54432,"New Site","AL",33.035225,-85.775012
1,54480,"Newton","AL",31.339126,-85.588578
1,54600,"Newville","AL",31.42167,-85.3365
1,55044,"North Courtland","AL",34.677186,-87.308365
1,55152,"North Johns","AL",33.368112,-87.10154
1,55200,"Northport","AL",33.244111,-87.592149
1,55440,"Notasulga","AL",32.557554,-85.672449
1,55752,"Oak Grove","AL",33.186178,-86.302855
1,55848,"Oak Hill","AL",31.922139,-87.088129
1,55992,"Oakman","AL",33.712982,-87.38847
1,56400,"Odenville","AL",33.686021,-86.39837
1,56472,"Ohatchee","AL",33.784483,-86.01872
1,57000,"Oneonta","AL",33.951165,-86.470595
1,57024,"Onycha","AL",31.224328,-86.279091
1,57048,"Opelika","AL",32.6542,-85.378805
1,57120,"Opp","AL",31.291399,-86.255997
1,57144,"Orange Beach","AL",30.284442,-87.590994
1,57240,"Orrville","AL",32.30832,-87.245408
1,57504,"Owens Crossroads","AL",34.582017,-86.460163
1,57576,"Oxford","AL",33.59703,-85.825836
1,57648,"Ozark","AL",31.439127,-85.648755
1,57696,"Paint Rock","AL",34.660576,-86.328777
1,58272,"Parrish","AL",33.733833,-87.280708
1,58848,"Pelham","AL",33.30328,-86.794051
1,58896,"Pell City","AL",33.560168,-86.272437
1,58968,"Pennington","AL",32.196798,-88.052363
1,59328,"Petrey","AL",31.849064,-86.20727
1,59472,"Phenix City","AL",32.465509,-85.01461
1,59496,"Phil Campbell","AL",34.352028,-87.70581
1,59592,"Pickensville","AL",33.226646,-88.265574
1,59640,"Piedmont","AL",33.927382,-85.615204
1,59832,"Pinckard","AL",31.320588,-85.544246
1,59880,"Pine Apple","AL",31.873728,-86.987682
1,60240,"Pine Hill","AL",31.985636,-87.582518
1,60372,"Pine Ridge","AL",34.44439,-85.779667
1,60636,"Pinson-Clay-Chalkville CD","AL",33.676696,-86.658635
1,60720,"Pisgah","AL",34.682152,-85.847759
1,61008,"Pleasant Grove","AL",33.489168,-86.975939
1,61488,"Point Clear","AL",30.489634,-87.904391
1,61536,"Pollard","AL",31.022531,-87.17243
1,62088,"Powell","AL",34.530771,-85.895102
1,62328,"Prattville","AL",32.4617,-86.446691
1,62472,"Priceville","AL",34.524219,-86.885583
1,62496,"Prichard","AL",30.7731,-88.130673
1,62688,"Providence","AL",32.344452,-87.772103
1,63216,"Ragland","AL",33.748065,-86.136302
1,63288,"Rainbow City","AL",33.92975,-86.087374
1,63336,"Rainsville","AL",34.498776,-85.844933
1,63408,"Ranburne","AL",33.524874,-85.340155
1,63576,"Red Bay","AL",34.436126,-88.136336
1,63768,"Red Level","AL",31.404179,-86.608199
1,63912,"Redstone Arsenal","AL",34.684075,-86.654036
1,63984,"Reece City","AL",34.072433,-86.032368
1,64104,"Reform","AL",33.379561,-88.016697
1,64368,"Repton","AL",31.408806,-87.239761
1,64656,"Ridgeville","AL",34.057014,-86.103258
1,64776,"River Falls","AL",31.350363,-86.541895
1,64920,"Riverside","AL",33.611281,-86.207701
1,65016,"Riverview","AL",31.058462,-87.05672
1,65040,"Roanoke","AL",33.145335,-85.369345
1,65208,"Robertsdale","AL",30.552139,-87.707803
1,65472,"Rockford","AL",32.887588,-86.217227
1,66216,"Rogersville","AL",34.826241,-87.284514
1,66408,"Rosa","AL",33.98454,-86.508688
1,67056,"Russellville","AL",34.505909,-87.729164
1,67176,"Rutledge","AL",31.729032,-86.301687
1,67536,"St. Florian","AL",34.86565,-87.623827
1,67608,"Saks","AL",33.71129,-85.85376
1,67800,"Samson","AL",31.11221,-86.046604
1,67920,"Sand Rock","AL",34.232126,-85.770626
1,68016,"Sanford","AL",31.297556,-86.401696
1,68160,"Saraland","AL",30.820093,-88.098927
1,68280,"Sardis City","AL",34.176717,-86.113538
1,68352,"Satsuma","AL",30.8541,-88.061099
1,68736,"Scottsboro","AL",34.649346,-86.047376
1,69000,"Section","AL",34.581,-85.983823
1,69120,"Selma","AL",32.416084,-87.032952
1,69180,"Selmont-West Selmont","AL",32.378357,-87.006673
1,69648,"Sheffield","AL",34.75525,-87.701261
1,69840,"Shiloh","AL",34.465468,-85.877339
1,70128,"Shorter","AL",32.400754,-85.936607
1,70416,"Silas","AL",31.769209,-88.320906
1,70536,"Silverhill","AL",30.545174,-87.749023
1,70704,"Sipsey","AL",33.822068,-87.083053
1,70896,"Skyline","AL",34.802861,-86.123512
1,71040,"Slocomb","AL",31.110254,-85.594335
1,71136,"Smiths","AL",32.539794,-85.087215
1,71201,"Smoke Rise","AL",33.879865,-86.824469
1,71280,"Snead","AL",34.115874,-86.391528
1,71496,"Somerville","AL",34.474706,-86.801372
1,71832,"Southside","AL",33.903767,-86.021986
1,71900,"South Vinemont","AL",34.23614,-86.862592
1,71976,"Spanish Fort","AL",30.675242,-87.884589
1,72600,"Springville","AL",33.773623,-86.475147
1,72888,"Steele","AL",33.934,-86.197259
1,73080,"Stevenson","AL",34.870608,-85.833098
1,73728,"Sulligent","AL",33.8947,-88.131888
1,73848,"Sumiton","AL",33.753076,-87.048167
1,73872,"Summerdale","AL",30.483286,-87.700361
1,74160,"Susan Moore","AL",34.074059,-86.429739
1,74304,"Sweet Water","AL",32.10169,-87.867328
1,74352,"Sylacauga","AL",33.175958,-86.261318
1,74400,"Sylvania","AL",34.55979,-85.80757
1,74424,"Sylvan Springs","AL",33.512896,-87.030561
1,74592,"Talladega","AL",33.432048,-86.098001
1,74616,"Talladega Springs","AL",33.117523,-86.444543
1,74688,"Tallassee","AL",32.53516,-85.891439
1,75000,"Tarrant","AL",33.5937,-86.767888
1,75096,"Taylor","AL",31.164467,-85.46758
1,75768,"Theodore","AL",30.545539,-88.176647
1,75936,"Thomaston","AL",32.268081,-87.62361
1,75960,"Thomasville","AL",31.912389,-87.741895
1,76080,"Thorsby","AL",32.914998,-86.714133
1,76320,"Tillmans Corner","AL",30.585517,-88.19134
1,76584,"Town Creek","AL",34.672665,-87.408315
1,76632,"Toxey","AL",31.910129,-88.30805
1,76680,"Trafford","AL",33.823647,-86.746489
1,76824,"Triana","AL",34.594573,-86.744271
1,76872,"Trinity","AL",34.598597,-87.089825
1,76920,"Troy","AL",31.804118,-85.968163
1,76944,"Trussville","AL",33.635929,-86.593213
1,77256,"Tuscaloosa","AL",33.2377,-87.540979
1,77280,"Tuscumbia","AL",34.728667,-87.705652
1,77304,"Tuskegee","AL",32.437748,-85.711143
1,77580,"Underwood-Petersville","AL",34.876969,-87.69601
1,77616,"Union","AL",32.993425,-87.9055
1,77784,"Union Grove","AL",34.399996,-86.446062
1,77880,"Union Springs","AL",32.138811,-85.71366
1,77904,"Uniontown","AL",32.447029,-87.508459
1,78204,"Valley","AL",32.809037,-85.173016
1,78240,"Valley Head","AL",34.550803,-85.625819
1,78264,"Vance","AL",33.170926,-87.227909
1,78480,"Vernon","AL",33.75833,-88.113754
1,78552,"Vestavia Hills","AL",33.433567,-86.787559
1,78984,"Vina","AL",34.374267,-88.056546
1,79008,"Vincent","AL",33.38561,-86.40994
1,79272,"Vredenburgh","AL",31.823284,-87.317533
1,79344,"Wadley","AL",33.123346,-85.568594
1,79488,"Waldo","AL",33.390871,-86.035391
1,79728,"Walnut Grove","AL",34.064583,-86.287287
1,79944,"Warrior","AL",33.813913,-86.808203
1,80064,"Waterloo","AL",34.916709,-88.064174
1,80256,"Waverly","AL",32.736134,-85.57615
1,80352,"Weaver","AL",33.7556,-85.808576
1,80376,"Webb","AL",31.256622,-85.285645
1,80496,"Wedowee","AL",33.308498,-85.486532
1,80928,"West Blocton","AL",33.118109,-87.125824
1,81084,"West End-Cobb Town","AL",33.648156,-85.871219
1,81336,"West Jefferson","AL",33.648736,-87.067931
1,81480,"Weston","AL",34.162189,-88.030852
1,81528,"West Point","AL",34.238096,-86.948206
1,81720,"Wetumpka","AL",32.544192,-86.201761
1,81912,"White Hall","AL",32.300783,-86.714537
1,82752,"Wilmer","AL",30.825683,-88.359191
1,82848,"Wilsonville","AL",33.236035,-86.479006
1,82872,"Wilton","AL",33.082152,-86.881057
1,82992,"Winfield","AL",33.929853,-87.796085
1,83400,"Woodland","AL",33.374083,-85.39927
1,83664,"Woodville","AL",34.625248,-86.282166
1,83976,"Yellow Bluff","AL",31.959773,-87.482179
1,84096,"York","AL",32.495962,-88.296126
2,320,"Adak Station","AK",51.8429,-176.640278
2,650,"Akhiok","AK",56.97732,-154.217551
2,760,"Akiachak","AK",60.87174,-161.403575
2,870,"Akiak","AK",60.885659,-161.192264
2,1090,"Akutan","AK",54.136299,-165.786036
2,1200,"Alakanuk","AK",62.675611,-164.643602
2,1360,"Alcan","AK",62.722977,-141.188178
2,1420,"Aleknagik","AK",59.285485,-158.628962
2,1860,"Allakaket","AK",66.54517,-152.733117
2,1970,"Ambler","AK",67.076879,-157.918155
2,2025,"Amchitka","AK",51.567103,-178.87738
2,2080,"Anaktuvuk Pass","AK",68.115875,-151.679549
2,3000,"Anchorage","AK",61.178368,-149.186416
2,3110,"Anchor Point","AK",59.770667,-151.813064
2,3220,"Anderson","AK",64.306512,-149.159654
2,3440,"Angoon","AK",57.478409,-134.520029
2,3550,"Aniak","AK",61.580742,-159.539124
2,3660,"Annette","AK",55.042123,-131.585763
2,3880,"Anvik","AK",62.655538,-160.2083
2,3990,"Arctic Village","AK",68.125245,-145.526906
2,4210,"Atka","AK",52.242218,-174.205154
2,4430,"Atmautluak","AK",60.85428,-162.269012
2,4500,"Atqasuk","AK",70.465827,-157.408634
2,5200,"Barrow","AK",71.268264,-156.806271
2,5750,"Beaver","AK",66.334203,-147.314663
2,6520,"Bethel","AK",60.768211,-161.772218
2,6630,"Bettles","AK",66.886581,-151.594416
2,6850,"Big Delta","AK",64.139919,-145.762114
2,7070,"Big Lake","AK",61.521423,-149.954399
2,7620,"Birch Creek","AK",66.245449,-145.830269
2,8740,"Brevig Mission","AK",65.335095,-166.480947
2,9600,"Buckland","AK",65.981052,-161.131676
2,9710,"Butte","AK",61.542467,-149.051667
2,10150,"Cantwell","AK",63.371603,-148.920201
2,11690,"Central","AK",65.555829,-144.857823
2,11800,"Chalkyitsik","AK",66.63802,-143.755047
2,12350,"Chase","AK",62.449074,-150.101756
2,12680,"Chefornak","AK",60.153746,-164.210294
2,12970,"Chenega","AK",60.104792,-147.943689
2,13230,"Chevak","AK",61.53349,-165.591558
2,13340,"Chickaloon","AK",61.79505,-148.480527
2,13550,"Chignik","AK",56.301639,-158.415696
2,13670,"Chignik Lagoon","AK",56.284127,-158.511127
2,13780,"Chignik Lake","AK",56.256133,-158.772221
2,13860,"Chiniak","AK",57.631863,-152.182537
2,14000,"Chistochina","AK",62.564429,-144.687193
2,14110,"Chitina","AK",61.524841,-144.489121
2,14330,"Chuathbaluk","AK",61.573195,-159.21641
2,14880,"Circle","AK",65.824542,-144.08262
2,14990,"Circle Hot Springs Statio","AK",65.470349,-144.689132
2,15320,"Clam Gulch","AK",60.224674,-151.402133
2,15450,"Clarks Point","AK",58.845722,-158.515717
2,16360,"Coffman Cove","AK",56.008167,-132.83906
2,16420,"Cohoe","AK",60.316683,-151.564388
2,16530,"Cold Bay","AK",55.225026,-162.738879
2,16750,"College","AK",64.869541,-147.823404
2,17190,"Cooper Landing","AK",60.491092,-149.792268
2,17300,"Copper Center","AK",61.980756,-145.351126
2,17380,"Copperville","AK",62.043925,-145.420658
2,17410,"Cordova","AK",60.547773,-145.747605
2,17670,"Covenant Life","AK",59.417228,-136.025127
2,17740,"Craig","AK",55.4828,-133.123153
2,17850,"Crooked Creek","AK",61.876909,-158.077845
2,17960,"Crown Point","AK",60.42253,-149.337543
2,18030,"Cube Cove","AK",57.935095,-134.711234
2,18290,"Deadhorse","AK",70.205556,-148.511648
2,18510,"Deering","AK",66.0736,-162.731743
2,18620,"Delta Junction","AK",64.063687,-145.708158
2,18950,"Dillingham","AK",59.062164,-158.527978
2,19060,"Diomede","AK",65.774678,-168.915363
2,19660,"Dora Bay","AK",55.188991,-132.295196
2,19720,"Dot Lake","AK",63.629122,-144.09512
2,20020,"Dry Creek","AK",63.653404,-144.665296
2,20380,"Eagle","AK",64.778147,-141.200633
2,20600,"Eagle Village","AK",64.790425,-141.1091
2,20970,"Edna Bay","AK",55.95393,-133.650728
2,21040,"Eek","AK",60.21889,-162.026425
2,21150,"Egegik","AK",58.228738,-157.3927
2,21370,"Eielson AFB","AK",64.675713,-147.091316
2,21810,"Ekwok","AK",59.360217,-157.479396
2,22140,"Elfin Cove","AK",58.186247,-136.336831
2,22250,"Elim","AK",64.621662,-162.260371
2,22910,"Emmonak","AK",62.778339,-164.537199
2,23130,"English Bay","AK",59.346854,-151.903489
2,23460,"Ester","AK",64.861264,-148.024538
2,23790,"Evansville","AK",66.878557,-151.45967
2,24010,"Eyak","AK",60.528455,-145.592556
2,24230,"Fairbanks","AK",64.837088,-147.649045
2,24670,"False Pass","AK",54.841028,-163.436845
2,25220,"Ferry","AK",63.927883,-149.130232
2,26100,"Fort Greely","AK",63.958664,-145.756094
2,26760,"Fort Yukon","AK",66.564951,-145.261831
2,26870,"Fox","AK",64.960744,-147.621258
2,26910,"Fox River","AK",59.858323,-150.958233
2,26950,"Freshwater Bay","AK",57.891643,-135.079348
2,27090,"Fritz Creek","AK",59.736089,-151.295346
2,27420,"Gakona","AK",62.292729,-145.309498
2,27530,"Galena","AK",64.740772,-156.819862
2,27640,"Gambell","AK",63.776555,-171.701685
2,27700,"Game Creek","AK",58.056687,-135.50789
2,28740,"Glennallen","AK",62.084862,-145.60352
2,29180,"Golovin","AK",64.578979,-162.990887
2,29290,"Goodnews Bay","AK",59.109807,-161.565292
2,30060,"Grayling","AK",62.899503,-160.107398
2,30500,"Gulkana","AK",62.252675,-145.399049
2,30940,"Gustavus","AK",58.40609,-135.801088
2,31050,"Haines","AK",59.24025,-135.440405
2,31270,"Halibut Cove","AK",59.587217,-151.237659
2,31710,"Happy Valley","AK",59.947278,-151.732222
2,31820,"Harding Lake","AK",64.421798,-146.850712
2,32150,"Healy","AK",63.811541,-149.002048
2,32310,"Healy Lake","AK",63.97701,-144.724097
2,32550,"Hobart Bay","AK",57.465822,-133.353254
2,32810,"Hollis","AK",55.556697,-132.636312
2,33030,"Holy Cross","AK",62.181376,-159.799406
2,33140,"Homer","AK",59.635463,-151.522165
2,33360,"Hoonah","AK",58.111547,-135.419779
2,33470,"Hooper Bay","AK",61.539757,-166.103051
2,33580,"Hope","AK",60.897173,-149.631634
2,33800,"Houston","AK",61.624142,-149.781057
2,33910,"Hughes","AK",66.037086,-154.26774
2,34350,"Huslia","AK",65.689918,-156.291976
2,34460,"Hydaburg","AK",55.208959,-132.817389
2,34570,"Hyder","AK",55.980417,-130.058689
2,34790,"Igiugig","AK",59.335135,-155.907214
2,35120,"Iliamna","AK",59.775077,-154.867589
2,35890,"Ivanof Bay","AK",55.960836,-159.489478
2,35950,"Jakolof Bay","AK",59.446922,-151.510399
2,36400,"Juneau","AK",58.388588,-134.133421
2,36550,"Kachemak","AK",59.674003,-151.431041
2,36770,"Kake","AK",56.968536,-133.924976
2,36990,"Kaktovik","AK",70.049178,-143.637027
2,37240,"Kalifonsky","AK",60.410079,-151.27977
2,37430,"Kaltag","AK",64.338617,-158.686168
2,37540,"Karluk","AK",57.586064,-154.395295
2,37650,"Kasaan","AK",55.546697,-132.404122
2,37975,"Kasigluk","AK",60.888999,-162.545653
2,38090,"Kasilof","AK",60.332904,-151.229949
2,38420,"Kenai","AK",60.553745,-151.207416
2,38910,"Kenny Lake","AK",61.719264,-144.948272
2,38970,"Ketchikan","AK",55.352515,-131.659582
2,39300,"Kiana","AK",66.970152,-160.45816
2,39410,"King Cove","AK",55.058571,-162.299822
2,39630,"King Salmon","AK",58.742922,-156.544639
2,39740,"Kipnuk","AK",59.923204,-164.101013
2,39960,"Kivalina","AK",67.72248,-164.533081
2,40400,"Klawock","AK",55.553792,-133.091015
2,40510,"Klukwan","AK",59.403875,-135.884494
2,40620,"Knik","AK",61.453293,-149.741617
2,40840,"Kobuk","AK",66.904607,-156.896358
2,40950,"Kodiak","AK",57.798532,-152.402265
2,41170,"Kodiak Station","AK",57.762943,-152.526856
2,41270,"Kokhanok","AK",59.407512,-154.744169
2,41500,"Koliganek","AK",59.736123,-157.266331
2,41610,"Kongiganak","AK",59.923976,-162.851942
2,41720,"Kotlik","AK",63.034125,-163.554705
2,41830,"Kotzebue","AK",66.888023,-162.535388
2,41940,"Koyuk","AK",64.93285,-161.148348
2,42050,"Koyukuk","AK",64.913529,-157.650652
2,42160,"Kupreanof","AK",56.808948,-132.985238
2,42380,"Kwethluk","AK",60.771814,-161.38849
2,42490,"Kwigillingok","AK",59.835882,-163.113734
2,42730,"Labouchere Bay","AK",56.296341,-133.632253
2,42820,"Lake Minchumina","AK",63.874443,-152.412786
2,43040,"Larsen Bay","AK",57.558681,-154.019734
2,43260,"Lazy Mountain","AK",61.626178,-148.945657
2,43810,"Levelock","AK",59.108594,-156.885009
2,43830,"Lignite","AK",63.890511,-149.04641
2,44030,"Lime Village","AK",61.432815,-155.472526
2,44920,"Long Island","AK",54.91706,-132.679279
2,45460,"Lower Kalskag","AK",61.51876,-160.349905
2,45700,"Lutak","AK",59.341066,-135.565509
2,45790,"McCarthy","AK",61.423206,-142.898032
2,46010,"McGrath","AK",62.954315,-155.575753
2,46560,"McKinley Park","AK",63.696655,-148.954823
2,46780,"Manley Hot Springs","AK",64.985763,-150.636587
2,46890,"Manokotak","AK",59.009559,-158.989699
2,47000,"Marshall","AK",61.875343,-162.060098
2,47735,"Meadow Lakes","AK",61.624594,-149.60123
2,47990,"Mekoryuk","AK",60.365679,-166.283583
2,48200,"Mendeltna","AK",62.066243,-146.449867
2,48540,"Mentasta Lake","AK",62.851791,-143.760878
2,48870,"Metlakatla","AK",55.124552,-131.580632
2,48980,"Meyers Chuck","AK",55.714925,-132.222972
2,49530,"Minto","AK",65.026198,-149.529566
2,50080,"Moose Creek","AK",64.713723,-147.16518
2,50190,"Moose Pass","AK",60.467277,-149.388376
2,50300,"Mosquito Lake","AK",59.52925,-136.090978
2,51180,"Mountain Village","AK",62.087808,-163.716689
2,52060,"Naknek","AK",58.760722,-156.901849
2,52390,"Napakiak","AK",60.676886,-161.978696
2,52720,"Napaskiak","AK",60.663758,-161.738144
2,52845,"Naukati Bay","AK",55.873675,-133.18476
2,52940,"Nelson Lagoon","AK",55.920749,-161.18903
2,53050,"Nenana","AK",64.543954,-149.086694
2,53270,"Newhalen","AK",59.734437,-154.880083
2,53710,"New Stuyahok","AK",59.473183,-157.262024
2,53820,"Newtok","AK",60.949358,-164.644051
2,53930,"Nightmute","AK",60.448283,-164.804066
2,54050,"Nikiski","AK",60.725224,-151.382747
2,54085,"Nikolaevsk","AK",59.83234,-151.589226
2,54150,"Nikolai","AK",62.995238,-154.390664
2,54260,"Nikolski","AK",52.9613,-168.822061
2,54480,"Ninilchik","AK",60.073494,-151.631301
2,54700,"Noatak","AK",67.582831,-163.005221
2,54920,"Nome","AK",64.509225,-165.415193
2,55030,"Nondalton","AK",59.990396,-154.853101
2,55140,"Noorvik","AK",66.828619,-161.042607
2,55910,"North Pole","AK",64.753195,-147.355951
2,56240,"Northway","AK",62.932888,-141.874895
2,56250,"Northway Junction","AK",63.002092,-141.777345
2,56260,"Northway Village","AK",62.977401,-141.903572
2,56320,"Nuiqsut","AK",70.191531,-150.9946
2,56350,"Nulato","AK",64.707622,-158.223607
2,56680,"Nunapitchuk","AK",60.879145,-162.452467
2,57340,"Old Harbor","AK",57.245032,-153.373587
2,58330,"Oscarville","AK",60.69665,-161.759205
2,58550,"Ouzinkie","AK",57.935175,-152.458165
2,58660,"Palmer","AK",61.598923,-149.109874
2,59320,"Paxson","AK",63.089858,-145.612966
2,59540,"Pedro Bay","AK",59.790507,-154.136625
2,59650,"Pelican","AK",57.953164,-136.209853
2,60200,"Perryville","AK",55.958639,-159.226086
2,60310,"Petersburg","AK",56.773998,-132.861623
2,60640,"Pilot Point","AK",57.619308,-157.459012
2,60750,"Pilot Station","AK",61.941425,-162.875852
2,60860,"Pitkas Point","AK",62.03126,-163.269979
2,61080,"Platinum","AK",58.973944,-161.725226
2,61120,"Pleasant Valley","AK",64.881333,-146.868546
2,61190,"Point Baker","AK",56.35471,-133.62364
2,61630,"Point Hope","AK",68.311254,-166.727131
2,61700,"Point Lay","AK",69.711136,-163.00889
2,61940,"Polk Inlet","AK",55.349703,-132.545879
2,62510,"Port Alexander","AK",56.218086,-134.63099
2,62550,"Port Alice","AK",55.826492,-133.60283
2,62620,"Port Alsworth","AK",60.2095,-154.304037
2,63170,"Port Clarence","AK",65.066264,-166.824454
2,63280,"Port Graham","AK",59.348525,-151.837369
2,63390,"Port Heiden","AK",56.955113,-158.587784
2,63610,"Port Lions","AK",57.89076,-152.858909
2,63870,"Port Protection","AK",56.317143,-133.598063
2,64240,"Primrose","AK",60.378301,-149.322824
2,64380,"Prudhoe Bay","AK",70.284047,-148.376162
2,64600,"Quinhagak","AK",59.739381,-161.872373
2,64820,"Rampart","AK",65.383627,-150.011201
2,64930,"Red Devil","AK",61.790327,-157.347864
2,65345,"Ridgeway","AK",60.53203,-151.085226
2,65520,"Rowan Bay","AK",56.653931,-134.251244
2,65590,"Ruby","AK",64.71757,-155.520662
2,65700,"Russian Mission","AK",61.794502,-161.353793
2,65800,"St. George","AK",56.614741,-169.594616
2,65980,"St. John Harbor","AK",56.43968,-132.963605
2,66140,"St. Mary's","AK",62.046064,-163.246256
2,66360,"St. Michael","AK",63.47759,-162.109141
2,66470,"St. Paul","AK",57.210529,-170.218936
2,66510,"Salamatof","AK",60.615924,-151.337406
2,66550,"Salcha","AK",64.469257,-146.94149
2,67020,"Sand Point","AK",55.319459,-160.491183
2,67460,"Savoonga","AK",63.679737,-170.470908
2,67570,"Saxman","AK",55.324617,-131.592159
2,67680,"Scammon Bay","AK",61.845019,-165.581945
2,68230,"Selawik","AK",66.603302,-160.02504
2,68340,"Seldovia","AK",59.439076,-151.709114
2,68560,"Seward","AK",60.113554,-149.39299
2,68670,"Shageluk","AK",62.668392,-159.565135
2,68890,"Shaktoolik","AK",64.36403,-161.204206
2,69220,"Sheldon Point","AK",62.516887,-164.892782
2,69770,"Shishmaref","AK",66.250656,-166.119539
2,70100,"Shungnak","AK",66.875901,-157.155702
2,70540,"Sitka","AK",57.21405,-135.446833
2,70760,"Skagway","AK",59.520367,-135.335701
2,70870,"Skwentna","AK",61.990238,-151.397818
2,70930,"Slana","AK",62.701524,-143.993976
2,71090,"Sleetmute","AK",61.721141,-157.183563
2,71640,"Soldotna","AK",60.487489,-151.06436
2,72190,"South Naknek","AK",58.685182,-156.980458
2,72960,"Stebbins","AK",63.478468,-162.227355
2,73070,"Sterling","AK",60.515179,-150.797051
2,73290,"Stevens Village","AK",65.999046,-149.054652
2,73400,"Stony River","AK",61.793128,-156.580762
2,74500,"Sutton","AK",61.717255,-148.881229
2,74610,"Takotna","AK",62.992833,-156.171777
2,74830,"Talkeetna","AK",62.33694,-150.092575
2,75050,"Tanacross","AK",63.3391,-143.432723
2,75160,"Tanana","AK",65.155992,-152.101918
2,75380,"Tatitlek","AK",60.883869,-146.677745
2,75930,"Teller","AK",65.256049,-166.36303
2,76260,"Tenakee Springs","AK",57.778393,-135.139441
2,76590,"Tetlin","AK",63.064643,-142.438924
2,77140,"Thorne Bay","AK",55.659194,-132.524696
2,77690,"Togiak","AK",58.936107,-160.5767
2,77800,"Tok","AK",63.300305,-143.038777
2,78240,"Toksook Bay","AK",60.493074,-165.094243
2,78350,"Tonsina","AK",61.635818,-145.157477
2,78680,"Trapper Creek","AK",62.241445,-150.415685
2,78790,"Tuluksak","AK",61.115757,-160.939181
2,79110,"Tuntutuliak","AK",60.326313,-162.740699
2,79230,"Tununak","AK",60.578904,-165.244762
2,79780,"Twin Hills","AK",59.07946,-160.210156
2,79830,"Two Rivers","AK",64.870994,-147.090009
2,79890,"Tyonek","AK",61.066993,-151.215174
2,80660,"Unalakleet","AK",63.884662,-160.789767
2,80770,"Unalaska","AK",53.934465,-166.510424
2,81320,"Upper Kalskag","AK",61.539126,-160.32895
2,82200,"Valdez","AK",61.083369,-146.302374
2,82420,"Venetie","AK",67.014588,-146.397946
2,82750,"Wainwright","AK",70.599953,-160.071563
2,82860,"Wales","AK",65.609251,-168.079924
2,83080,"Wasilla","AK",61.580211,-149.461598
2,84000,"Whale Pass","AK",56.103172,-133.172668
2,84070,"White Mountain","AK",64.683605,-163.419517
2,84200,"Whitestone Logging Camp C","AK",58.071247,-135.429846
2,84510,"Whittier","AK",60.79356,-148.651577
2,85280,"Willow","AK",61.740786,-150.056317
2,85680,"Womens Bay","AK",57.682308,-152.66872
2,86380,"Wrangell","AK",56.361602,-132.271579
2,86490,"Yakutat","AK",59.557526,-139.762121
4,870,"Ajo","AZ",32.387246,-112.868364
4,1010,"Ak-Chin Village","AZ",33.028295,-112.086986
4,2830,"Apache Junction","AZ",33.405,-111.546999
4,3530,"Arizona City","AZ",32.750803,-111.669818
4,4720,"Avondale","AZ",33.420072,-112.324044
4,4880,"Avra Valley","AZ",32.437856,-111.314712
4,5140,"Bagdad","AZ",34.577922,-113.17373
4,5770,"Benson","AZ",31.962193,-110.303107
4,6015,"Big Park","AZ",34.78018,-111.761827
4,6260,"Bisbee","AZ",31.404563,-109.917479
4,6610,"Black Canyon City","AZ",34.062484,-112.109368
4,6820,"Blackwater","AZ",33.030663,-111.61527
4,7025,"Bluewater","AZ",34.168535,-114.26412
4,7940,"Buckeye","AZ",33.412639,-112.585529
4,8255,"Bullhead City","AZ",35.114187,-114.55859
4,8710,"Bylas","AZ",33.130591,-110.110094
4,9340,"Cameron","AZ",35.84825,-111.431858
4,9690,"Camp Verde","AZ",34.569655,-111.856192
4,10040,"Canyon Day","AZ",33.78142,-110.026176
4,10180,"Carefree","AZ",33.822423,-111.91844
4,10530,"Casa Grande","AZ",32.892313,-111.735927
4,11160,"Catalina","AZ",32.47685,-110.900211
4,11300,"Cave Creek","AZ",33.826165,-111.965206
4,11720,"Central Heights-Midland C","AZ",33.405183,-110.812166
4,12000,"Chandler","AZ",33.295,-111.866856
4,12770,"Chinle","AZ",36.151912,-109.580026
4,12840,"Chino Valley","AZ",34.763216,-112.454696
4,13190,"Chuichu","AZ",32.744768,-111.797223
4,13400,"Cibecue","AZ",34.029486,-110.482165
4,13890,"Clarkdale","AZ",34.759667,-112.056476
4,13960,"Claypool","AZ",33.406687,-110.840115
4,14380,"Clifton","AZ",33.023511,-109.290494
4,14870,"Colorado City","AZ",36.980841,-112.982502
4,15500,"Coolidge","AZ",32.982439,-111.5276
4,15920,"Cornville","AZ",34.721847,-111.907833
4,16410,"Cottonwood","AZ",34.73452,-112.024405
4,16485,"Cottonwood-Verde Village","AZ",34.711146,-111.994376
4,18580,"Dennehotso","AZ",36.821527,-109.883784
4,18740,"Desert Hills","AZ",34.55397,-114.371691
4,19145,"Dewey-Humboldt","AZ",34.532554,-112.2518
4,19630,"Dolan Springs","AZ",35.604482,-114.266523
4,20050,"Douglas","AZ",31.342687,-109.528194
4,20680,"Dudleyville","AZ",32.914267,-110.733779
4,20750,"Duncan","AZ",32.736254,-109.09178
4,20960,"Eagar","AZ",34.104928,-109.292112
4,21310,"East Fork","AZ",33.806447,-109.931443
4,21800,"Ehrenberg","AZ",33.622929,-114.493922
4,22220,"El Mirage","AZ",33.59121,-112.324018
4,22360,"Eloy","AZ",32.745043,-111.606508
4,23620,"Flagstaff","AZ",35.189005,-111.619768
4,23760,"Florence","AZ",33.037566,-111.373908
4,23960,"Flowing Wells","AZ",32.293812,-111.009162
4,24460,"Fort Defiance","AZ",35.743675,-109.066589
4,25030,"Fortuna Foothills","AZ",32.657665,-114.41103
4,25300,"Fountain Hills","AZ",33.60535,-111.741113
4,25720,"Fredonia","AZ",36.964762,-112.518848
4,26210,"Ganado","AZ",35.707551,-109.55203
4,27050,"Gila Bend","AZ",32.951532,-112.684799
4,27400,"Gilbert","AZ",33.332032,-111.764189
4,27820,"Glendale","AZ",33.584128,-112.20159
4,28030,"Globe","AZ",33.382813,-110.754305
4,28195,"Golden Valley","AZ",35.223239,-114.22209
4,28380,"Goodyear","AZ",33.346954,-112.411365
4,28981,"Grand Canyon Village","AZ",36.046441,-112.153457
4,29430,"Greasewood","AZ",35.528024,-109.86009
4,29710,"Green Valley","AZ",31.84854,-111.009769
4,30270,"Guadalupe","AZ",33.365767,-111.961669
4,32020,"Hayden","AZ",32.999884,-110.780957
4,32410,"Heber-Overgaard","AZ",34.414006,-110.568836
4,33280,"Holbrook","AZ",34.912841,-110.155225
4,33910,"Hotevilla","AZ",35.923787,-110.657593
4,34120,"Huachuca City","AZ",31.632069,-110.340846
4,36290,"Jerome","AZ",34.746705,-112.106123
4,36475,"Kachina Village","AZ",35.097003,-111.691933
4,36640,"Kaibito","AZ",36.589036,-111.110317
4,36990,"Kayenta","AZ",36.71796,-110.252566
4,37130,"Keams Canyon","AZ",35.815911,-110.208894
4,37200,"Kearny","AZ",33.056211,-110.905981
4,37620,"Kingman","AZ",35.20702,-114.03197
4,38670,"Komatke","AZ",33.306204,-112.178107
4,39100,"Kykotsmovi Village","AZ",35.87424,-110.622749
4,39370,"Lake Havasu City","AZ",34.502866,-114.314272
4,39720,"Lake Montezuma","AZ",34.639323,-111.795516
4,40630,"Leupp","AZ",35.295387,-111.000574
4,41330,"Litchfield Park","AZ",33.502526,-112.358817
4,42660,"Lukachukai","AZ",36.400071,-109.256877
4,42800,"Luke AFB","AZ",33.533129,-112.370673
4,43430,"McNary","AZ",34.095785,-109.850548
4,43990,"Mammoth","AZ",32.721506,-110.643497
4,44200,"Many Farms","AZ",36.350271,-109.618463
4,44270,"Marana","AZ",32.414432,-111.172754
4,46000,"Mesa","AZ",33.417736,-111.740337
4,46350,"Miami","AZ",33.394327,-110.872055
4,47330,"Moenkopi","AZ",36.110912,-111.222177
4,47400,"Mohave Valley","AZ",34.933188,-114.588049
4,47610,"Morenci","AZ",33.053047,-109.329545
4,49270,"New Kingman-Butler","AZ",35.260142,-114.029765
4,49640,"Nogales","AZ",31.363719,-110.932639
4,51180,"Oracle","AZ",32.618765,-110.784194
4,51600,"Oro Valley","AZ",32.424972,-110.964657
4,51810,"Page","AZ",36.904253,-111.457823
4,52930,"Paradise Valley","AZ",33.539267,-111.954622
4,53070,"Parker","AZ",34.021823,-114.231043
4,53210,"Parker Strip","AZ",34.257749,-114.142052
4,53490,"Patagonia","AZ",31.54328,-110.74895
4,53700,"Payson","AZ",34.242604,-111.327002
4,53770,"Peach Springs","AZ",35.527421,-113.429819
4,54050,"Peoria","AZ",33.688481,-112.244464
4,54190,"Peridot","AZ",33.302665,-110.454308
4,55000,"Phoenix","AZ",33.54255,-112.071399
4,55300,"Picture Rocks","AZ",32.345764,-111.245677
4,55560,"Pima","AZ",32.888143,-109.833319
4,55980,"Pinetop-Lakeside","AZ",34.148123,-109.966371
4,56120,"Pinon","AZ",36.100708,-110.221264
4,56400,"Pirtleville","AZ",31.361653,-109.566932
4,56470,"Pisinemo","AZ",32.037785,-112.320326
4,56890,"Polacca","AZ",35.835638,-110.365594
4,57170,"Poston","AZ",33.959122,-114.415234
4,57380,"Prescott","AZ",34.576007,-112.449076
4,57450,"Prescott Valley","AZ",34.608234,-112.321417
4,58010,"Quartzsite","AZ",33.666992,-114.214993
4,58150,"Queen Creek","AZ",33.24143,-111.643236
4,60184,"Rio Rico East","AZ",31.479779,-110.975573
4,61370,"Rough Rock","AZ",36.409547,-109.867529
4,61720,"Sacaton","AZ",33.082147,-111.746081
4,62000,"Safford","AZ",32.831157,-109.698147
4,62280,"St. David","AZ",31.900091,-110.229392
4,62350,"St. Johns","AZ",34.509929,-109.376758
4,62420,"St. Michaels","AZ",35.661688,-109.09362
4,62910,"San Carlos","AZ",33.348635,-110.465051
4,63470,"San Luis","AZ",32.492453,-114.777861
4,63540,"San Manuel","AZ",32.613999,-110.636202
4,64100,"Santan","AZ",33.145476,-111.801546
4,64310,"Santa Rosa","AZ",32.334847,-112.045401
4,64590,"Sawmill","AZ",35.891686,-109.15352
4,65000,"Scottsdale","AZ",33.685992,-111.870478
4,65280,"Second Mesa","AZ",35.817608,-110.503592
4,65350,"Sedona","AZ",34.859275,-111.795122
4,65490,"Sells","AZ",31.918458,-111.876443
4,66190,"Shongopovi","AZ",35.818099,-110.533999
4,66260,"Shonto","AZ",36.588018,-110.654182
4,66470,"Show Low","AZ",34.237331,-110.044298
4,66820,"Sierra Vista","AZ",31.565113,-110.322461
4,66845,"Sierra Vista Southeast CD","AZ",31.460592,-110.217428
4,67800,"Snowflake","AZ",34.521977,-110.084197
4,68080,"Somerton","AZ",32.597083,-114.709457
4,68850,"South Tucson","AZ",32.196,-110.968249
4,68990,"Springerville","AZ",34.156075,-109.296503
4,70320,"Sun City","AZ",33.616267,-112.281815
4,70355,"Sun City West","AZ",33.665416,-112.354123
4,70530,"Sun Lakes","AZ",33.216859,-111.870092
4,71230,"Supai","AZ",36.224157,-112.693212
4,71300,"Superior","AZ",33.285854,-111.109484
4,71510,"Surprise","AZ",33.664112,-112.468451
4,71650,"Swift Trail Junction","AZ",32.732465,-109.714932
4,72420,"Taylor","AZ",34.449926,-110.11155
4,72560,"Teec Nos Pos","AZ",36.929104,-109.082099
4,73000,"Tempe","AZ",33.38835,-111.930639
4,73420,"Thatcher","AZ",32.838355,-109.759036
4,73700,"Three Points","AZ",32.067515,-111.278411
4,74190,"Tolleson","AZ",33.4488,-112.254824
4,74400,"Tombstone","AZ",31.717305,-110.062216
4,75600,"Tsaile","AZ",36.303712,-109.214705
4,76010,"Tuba City","AZ",36.124981,-111.242465
4,77000,"Tucson","AZ",32.195816,-110.891717
4,77035,"Tucson Estates","AZ",32.18955,-111.084058
4,78760,"Valencia West","AZ",32.135139,-111.106913
4,81480,"Wellton","AZ",32.672888,-114.139327
4,82155,"Whetstone","AZ",31.701705,-110.340746
4,82530,"Whiteriver","AZ",33.838919,-109.961619
4,82740,"Wickenburg","AZ",33.966615,-112.754409
4,83090,"Willcox","AZ",32.25067,-109.835163
4,83160,"Williams","AZ",35.264635,-112.172838
4,83570,"Willow Valley","AZ",34.912035,-114.605802
4,83720,"Window Rock","AZ",35.670895,-109.06437
4,83790,"Winkelman","AZ",32.989003,-110.769577
4,83930,"Winslow","AZ",35.027779,-110.706934
4,85400,"Youngtown","AZ",33.58715,-112.303049
4,85540,"Yuma","AZ",32.67745,-114.620157
5,250,"Adona","AR",35.039957,-92.898462
5,580,"Alexander","AR",34.630272,-92.442774
5,700,"Alicia","AR",35.89442,-91.083028
5,940,"Allport","AR",34.539454,-91.784843
5,970,"Alma","AR",35.489943,-94.222852
5,1030,"Almyra","AR",34.405749,-91.410555
5,1060,"Alpena","AR",36.29297,-93.293346
5,1150,"Altheimer","AR",34.318947,-91.846228
5,1210,"Altus","AR",35.442873,-93.762461
5,1270,"Amagon","AR",35.562441,-91.110573
5,1360,"Amity","AR",34.266149,-93.463909
5,1540,"Antoine","AR",34.034016,-93.421059
5,1870,"Arkadelphia","AR",34.123759,-93.070631
5,1990,"Arkansas City","AR",33.608824,-91.205659
5,2380,"Ashdown","AR",33.674367,-94.125998
5,2470,"Ash Flat","AR",36.225765,-91.606522
5,2590,"Atkins","AR",35.242555,-92.945561
5,2680,"Aubrey","AR",34.71978,-90.897847
5,2740,"Augusta","AR",35.285466,-91.360486
5,2860,"Austin","AR",34.99804,-91.981777
5,3040,"Avoca","AR",36.399898,-94.073037
5,3280,"Bald Knob","AR",35.308177,-91.572525
5,3430,"Banks","AR",33.575929,-92.268238
5,3640,"Barling","AR",35.325153,-94.300068
5,3940,"Bassett","AR",35.536081,-90.130889
5,4030,"Batesville","AR",35.76824,-91.622279
5,4090,"Bauxite","AR",34.556876,-92.526041
5,4180,"Bay","AR",35.740027,-90.55919
5,4420,"Bearden","AR",33.727515,-92.616261
5,4540,"Beaver","AR",36.476124,-93.772743
5,4600,"Beebe","AR",35.072252,-91.89389
5,4720,"Beedeville","AR",35.428568,-91.108917
5,4840,"Bella Vista","AR",36.468136,-94.294387
5,4900,"Bellefonte","AR",36.200434,-93.046363
5,4960,"Belleville","AR",35.090666,-93.445305
5,5260,"Ben Lomond","AR",33.834431,-94.114988
5,5290,"Benton","AR",34.569243,-92.57725
5,5320,"Bentonville","AR",36.36885,-94.204849
5,5440,"Bergman","AR",36.31294,-93.011061
5,5560,"Berryville","AR",36.371001,-93.565389
5,5740,"Bethel Heights","AR",36.222767,-94.127457
5,5920,"Bigelow","AR",34.998974,-92.631041
5,5980,"Big Flat","AR",36.005766,-92.404996
5,6040,"Biggers","AR",36.332002,-90.805928
5,6430,"Birdsong","AR",35.459018,-90.260501
5,6610,"Black Oak","AR",35.835471,-90.367109
5,6700,"Black Rock","AR",36.106382,-91.108629
5,6730,"Black Springs","AR",34.461511,-93.713541
5,7030,"Blevins","AR",33.871131,-93.577248
5,7150,"Blue Eye","AR",36.495973,-93.396921
5,7210,"Blue Mountain","AR",35.131714,-93.715311
5,7270,"Bluff City","AR",33.717233,-93.133062
5,7330,"Blytheville","AR",35.934312,-89.924775
5,7450,"Bodcaw","AR",33.556622,-93.401113
5,7540,"Bonanza","AR",35.234127,-94.427445
5,7630,"Bono","AR",35.910539,-90.796673
5,7720,"Booneville","AR",35.139397,-93.918461
5,8260,"Bradford","AR",35.423067,-91.456642
5,8290,"Bradley","AR",33.099915,-93.656861
5,8440,"Branch","AR",35.306056,-93.956258
5,8950,"Brinkley","AR",34.88433,-91.189038
5,9100,"Brookland","AR",35.90141,-90.580836
5,9460,"Bryant","AR",34.612371,-92.492041
5,9550,"Buckner","AR",33.357167,-93.43538
5,9790,"Bull Shoals","AR",36.376039,-92.588413
5,9880,"Burdette","AR",35.814861,-89.945934
5,10300,"Cabot","AR",34.968176,-92.02199
5,10360,"Caddo Valley","AR",34.187866,-93.07004
5,10450,"Caldwell","AR",35.079327,-90.815078
5,10480,"Cale","AR",33.627926,-93.233108
5,10570,"Calico Rock","AR",36.128298,-92.131148
5,10600,"Calion","AR",33.328838,-92.538397
5,10720,"Camden","AR",33.566689,-92.845657
5,10780,"Cammack Village","AR",34.77985,-92.34678
5,10900,"Campbell Station","AR",35.669481,-91.25438
5,11410,"Caraway","AR",35.758035,-90.331987
5,11500,"Carlisle","AR",34.786086,-91.746514
5,11830,"Carthage","AR",34.072252,-92.555548
5,11890,"Casa","AR",35.025833,-93.044321
5,11920,"Cash","AR",35.799822,-90.9322
5,12190,"Caulksville","AR",35.301739,-93.868499
5,12280,"Cave City","AR",35.94668,-91.54783
5,12340,"Cave Springs","AR",36.262694,-94.228719
5,12820,"Centerton","AR",36.360312,-94.284966
5,13120,"Central City","AR",35.327363,-94.236698
5,13300,"Charleston","AR",35.294511,-94.048435
5,13450,"Cherokee Village-Hidden V","AR",36.301622,-91.569482
5,13540,"Cherry Valley","AR",35.402976,-90.753787
5,13570,"Chester","AR",35.678047,-94.177474
5,13750,"Chidester","AR",33.69991,-93.018715
5,13990,"Clarendon","AR",34.695458,-91.305817
5,14140,"Clarksville","AR",35.457574,-93.472395
5,14260,"Clinton","AR",35.581075,-92.452359
5,14500,"Coal Hill","AR",35.437023,-93.667554
5,14770,"College City","AR",36.125709,-90.939988
5,14950,"Colt","AR",35.132535,-90.812292
5,15100,"Concord","AR",35.663429,-91.848729
5,15190,"Conway","AR",35.088809,-92.453098
5,15310,"Corinth","AR",35.068243,-93.420544
5,15460,"Corning","AR",36.410818,-90.585851
5,15490,"Cotter","AR",36.282492,-92.520229
5,15550,"Cotton Plant","AR",35.006938,-91.251472
5,15700,"Cove","AR",34.435017,-94.409229
5,15790,"Coy","AR",34.541787,-91.869599
5,15940,"Crawfordsville","AR",35.225653,-90.32622
5,16240,"Crossett","AR",33.127353,-91.966014
5,16930,"Cushman","AR",35.863606,-91.778612
5,17140,"Daisy","AR",34.233088,-93.741895
5,17290,"Damascus","AR",35.36464,-92.405811
5,17320,"Danville","AR",35.052081,-93.390282
5,17380,"Dardanelle","AR",35.226423,-93.165609
5,17410,"Datto","AR",36.393166,-90.728081
5,17740,"Decatur","AR",36.337579,-94.458484
5,18010,"Delaplaine","AR",36.23132,-90.726015
5,18100,"Delight","AR",34.029446,-93.505771
5,18160,"Dell","AR",35.855185,-90.033437
5,18370,"Denning","AR",35.424602,-93.755219
5,18490,"De Queen","AR",34.04274,-94.341807
5,18520,"Dermott","AR",33.526602,-91.437725
5,18550,"Des Arc","AR",34.975676,-91.505167
5,18640,"De Valls Bluff","AR",34.785728,-91.460788
5,18790,"De Witt","AR",34.289533,-91.338131
5,18850,"Diamond City","AR",36.4558,-92.915096
5,18940,"Diaz","AR",35.647949,-91.259891
5,18970,"Dierks","AR",34.120579,-94.018769
5,19600,"Dover","AR",35.402166,-93.112419
5,19990,"Dumas","AR",33.883161,-91.485919
5,20200,"Dyer","AR",35.494446,-94.138336
5,20230,"Dyess","AR",35.589359,-90.213131
5,20320,"Earle","AR",35.273294,-90.464978
5,20440,"East Camden","AR",33.608507,-92.742409
5,20830,"Edmondson","AR",35.103547,-90.309776
5,20920,"Egypt","AR",35.866649,-90.952883
5,20950,"Elaine","AR",34.308276,-90.854089
5,21070,"El Dorado","AR",33.219028,-92.662763
5,21190,"Elkins","AR",36.019799,-94.028293
5,21430,"Elm Springs","AR",36.201729,-94.215496
5,21580,"Emerson","AR",33.097365,-93.196092
5,21610,"Emmet","AR",33.722052,-93.466177
5,21730,"England","AR",34.544911,-91.967931
5,21820,"Enola","AR",35.200235,-92.201061
5,22180,"Eudora","AR",33.119766,-91.263117
5,22240,"Eureka Springs","AR",36.399212,-93.737378
5,22360,"Evening Shade","AR",36.070437,-91.621271
5,22450,"Everton","AR",36.155375,-92.908392
5,22660,"Fairfield Bay","AR",35.605071,-92.269823
5,23140,"Fargo","AR",34.955047,-91.177055
5,23170,"Farmington","AR",36.042343,-94.241974
5,23290,"Fayetteville","AR",36.0718,-94.155684
5,23320,"Felsenthal","AR",33.057875,-92.152623
5,23680,"Fifty-Six","AR",35.960401,-92.229916
5,23800,"Fisher","AR",35.491473,-90.972178
5,24010,"Flippin","AR",36.277018,-92.592059
5,24220,"Fordyce","AR",33.817686,-92.413813
5,24250,"Foreman","AR",33.717334,-94.397549
5,24430,"Forrest City","AR",35.014391,-90.78534
5,24550,"Fort Smith","AR",35.36785,-94.384737
5,24640,"Fouke","AR",33.26078,-93.886448
5,24670,"Fountain Hill","AR",33.356933,-91.85086
5,24760,"Fourche","AR",34.993105,-92.618812
5,25030,"Franklin","AR",36.171398,-91.772334
5,25060,"Fredonia (Biscoe)","AR",34.818578,-91.409077
5,25180,"Friendship","AR",34.223753,-93.003008
5,25360,"Fulton","AR",33.611864,-93.814287
5,25750,"Garfield","AR",36.453719,-93.969783
5,25780,"Garland","AR",33.359815,-93.712812
5,25900,"Garner","AR",35.13948,-91.78013
5,26050,"Gassville","AR",36.282551,-92.494682
5,26110,"Gateway","AR",36.485566,-93.936335
5,26290,"Gentry","AR",36.266809,-94.482846
5,26440,"Georgetown","AR",35.126261,-91.453233
5,26710,"Gibson","AR",34.895368,-92.227056
5,26800,"Gilbert","AR",35.990187,-92.718214
5,26980,"Gillett","AR",34.119126,-91.378985
5,27010,"Gillham","AR",34.167868,-94.313507
5,27040,"Gilmore","AR",35.411145,-90.277431
5,27310,"Glenwood","AR",34.331128,-93.549694
5,27670,"Goshen","AR",36.108948,-94.00203
5,27700,"Gosnell","AR",35.961057,-89.97237
5,27730,"Gould","AR",33.985411,-91.562706
5,27790,"Grady","AR",34.078716,-91.698318
5,27970,"Grannis","AR",34.240052,-94.32032
5,28270,"Gravel Ridge","AR",34.871384,-92.187724
5,28360,"Gravette","AR",36.422002,-94.454145
5,28510,"Greenbrier","AR",35.229802,-92.383543
5,28600,"Green Forest","AR",36.336126,-93.42906
5,28660,"Greenland","AR",36.000187,-94.183592
5,28720,"Greenway","AR",36.341092,-90.222202
5,28780,"Greenwood","AR",35.211667,-94.235133
5,28810,"Greers Ferry","AR",35.567773,-92.169163
5,28990,"Griffithville","AR",35.124779,-91.645576
5,29020,"Grubbs","AR",35.652706,-91.074715
5,29080,"Guion","AR",35.929128,-91.940059
5,29140,"Gum Springs","AR",34.064471,-93.09588
5,29200,"Gurdon","AR",33.916435,-93.148141
5,29230,"Guy","AR",35.324504,-92.334781
5,29290,"Hackett","AR",35.187533,-94.410317
5,29500,"Hamburg","AR",33.225806,-91.797045
5,29650,"Hampton","AR",33.536717,-92.465368
5,29920,"Hardy","AR",36.321492,-91.480417
5,30310,"Harrell","AR",33.510001,-92.401651
5,30400,"Harrisburg","AR",35.560298,-90.72113
5,30460,"Harrison","AR",36.241883,-93.11946
5,30490,"Hartford","AR",35.02326,-94.378182
5,30520,"Hartman","AR",35.434468,-93.618484
5,30640,"Haskell","AR",34.505458,-92.636643
5,30700,"Hatfield","AR",34.487103,-94.378659
5,30790,"Havana","AR",35.110232,-93.527921
5,30880,"Haynes","AR",34.889811,-90.792371
5,30940,"Hazen","AR",34.789298,-91.573738
5,31090,"Heber Springs","AR",35.500186,-92.038592
5,31150,"Hector","AR",35.465699,-92.975251
5,31180,"Helena","AR",34.526257,-90.604698
5,31540,"Hermitage","AR",33.447234,-92.170209
5,31900,"Hickory Ridge","AR",35.403525,-90.994692
5,32080,"Higden","AR",35.566363,-92.205187
5,32140,"Higginson","AR",35.195789,-91.711479
5,32200,"Highfill","AR",36.259237,-94.356268
5,32470,"Hindsville","AR",36.147569,-93.860076
5,32800,"Holly Grove","AR",34.596165,-91.200667
5,33190,"Hope","AR",33.668223,-93.591234
5,33310,"Horatio","AR",33.939833,-94.355108
5,33370,"Horseshoe Bend","AR",36.223312,-91.740954
5,33375,"Horseshoe Lake","AR",34.913338,-90.307035
5,33460,"Hot Springs","AR",34.493672,-93.052042
5,33482,"Hot Springs Village","AR",34.665171,-93.000065
5,33490,"Houston","AR",35.034912,-92.694124
5,33580,"Hoxie","AR",36.043709,-90.977491
5,33760,"Hughes","AR",34.948477,-90.47127
5,33820,"Humnoke","AR",34.542143,-91.758834
5,33850,"Humphrey","AR",34.422617,-91.702285
5,33910,"Hunter","AR",35.053363,-91.122745
5,33940,"Huntington","AR",35.081796,-94.265984
5,33970,"Huntsville","AR",36.089081,-93.73723
5,34090,"Huttig","AR",33.041275,-92.182249
5,34150,"Imboden","AR",36.201698,-91.179771
5,34720,"Jacksonport","AR",35.641209,-91.307773
5,34750,"Jacksonville","AR",34.869755,-92.127992
5,34900,"Jasper","AR",36.006054,-93.188294
5,35040,"Jennette","AR",35.165561,-90.407515
5,35140,"Jericho","AR",35.285907,-90.227305
5,35170,"Jerome","AR",33.398818,-91.470816
5,35500,"Johnson","AR",36.133174,-94.172967
5,35650,"Joiner","AR",35.508311,-90.149739
5,35710,"Jonesboro","AR",35.821828,-90.685768
5,36040,"Judsonia","AR",35.275902,-91.64017
5,36130,"Junction City","AR",33.02411,-92.723598
5,36310,"Keiser","AR",35.674485,-90.094762
5,36430,"Kensett","AR",35.235479,-91.670107
5,36550,"Keo","AR",34.613057,-92.011133
5,36670,"Kibler","AR",35.425232,-94.236048
5,36880,"Kingsland","AR",33.861294,-92.294052
5,37240,"Knobel","AR",36.319297,-90.60167
5,37300,"Knoxville","AR",35.377831,-93.364787
5,37660,"Lafe","AR",36.207081,-90.50312
5,37720,"LaGrange","AR",34.655514,-90.733726
5,37780,"Lake City","AR",35.81897,-90.44858
5,37930,"Lake Hamilton","AR",34.426023,-93.089268
5,38050,"Lakeview","AR",36.375167,-92.539165
5,38110,"Lake View","AR",34.423149,-90.810284
5,38170,"Lake Village","AR",33.324203,-91.283532
5,38290,"Lamar","AR",35.439201,-93.387796
5,38890,"Lavaca","AR",35.33498,-94.181567
5,39010,"Leachville","AR",35.921546,-90.256248
5,39040,"Lead Hill","AR",36.414723,-92.906736
5,39310,"Leola","AR",34.169321,-92.590719
5,39370,"Lepanto","AR",35.607086,-90.333493
5,39460,"Leslie","AR",35.829448,-92.555918
5,39520,"Letona","AR",35.363082,-91.83015
5,39640,"Lewisville","AR",33.362966,-93.576618
5,39670,"Lexa","AR",34.598203,-90.752614
5,39970,"Lincoln","AR",35.947224,-94.422081
5,40120,"Little Flock","AR",36.387845,-94.136486
5,41000,"Little Rock","AR",34.7224,-92.354076
5,41090,"Lockesburg","AR",33.970912,-94.173082
5,41270,"London","AR",35.328171,-93.240067
5,41420,"Lonoke","AR",34.786011,-91.899554
5,41450,"Lonsdale","AR",34.544672,-92.811078
5,41630,"Louann","AR",33.39159,-92.792748
5,41720,"Lowell","AR",36.2673,-94.136673
5,42170,"Luxora","AR",35.757668,-89.930233
5,42260,"Lynn","AR",36.006569,-91.251992
5,42410,"McCaskill","AR",33.917571,-93.641109
5,42500,"McCrory","AR",35.256855,-91.197745
5,42560,"McDougal","AR",36.436602,-90.39023
5,42770,"McGehee","AR",33.625353,-91.392533
5,43070,"McNab","AR",33.660716,-93.832225
5,43100,"McNeil","AR",33.347876,-93.208805
5,43220,"McRae","AR",35.114193,-91.822564
5,43280,"Madison","AR",35.019419,-90.73051
5,43310,"Magazine","AR",35.152692,-93.806329
5,43370,"Magness","AR",35.701878,-91.482319
5,43460,"Magnolia","AR",33.274016,-93.235379
5,43610,"Malvern","AR",34.371124,-92.815565
5,43670,"Mammoth Spring","AR",36.494133,-91.544698
5,43820,"Manila","AR",35.883589,-90.161451
5,43880,"Mansfield","AR",35.059073,-94.246744
5,44120,"Marianna","AR",34.774584,-90.766352
5,44150,"Marie","AR",35.613285,-90.081687
5,44180,"Marion","AR",35.206516,-90.203462
5,44210,"Marked Tree","AR",35.529954,-90.417457
5,44240,"Marmaduke","AR",36.188351,-90.387775
5,44300,"Marshall","AR",35.909875,-92.636207
5,44420,"Marvell","AR",34.555991,-90.914514
5,44600,"Maumelle","AR",34.85248,-92.410534
5,44750,"Mayflower","AR",34.971815,-92.419024
5,44780,"Maynard","AR",36.421847,-90.901909
5,45080,"Melbourne","AR",36.062337,-91.898652
5,45170,"Mena","AR",34.58045,-94.236696
5,45200,"Menifee","AR",35.148312,-92.55482
5,45500,"Midland","AR",35.093,-94.352662
5,46040,"Mineral Springs","AR",33.877647,-93.919964
5,46100,"Minturn","AR",35.975002,-91.027498
5,46190,"Mitchellville","AR",33.905872,-91.498487
5,46400,"Monette","AR",35.89366,-90.344632
5,46580,"Monticello","AR",33.624763,-91.793784
5,46670,"Montrose","AR",33.298565,-91.49703
5,46730,"Moorefield","AR",35.768123,-91.570961
5,46910,"Moro","AR",34.79253,-90.989274
5,46970,"Morrilton","AR",35.156241,-92.740892
5,47030,"Morrison Bluff","AR",35.382189,-93.527432
5,47300,"Mountainburg","AR",35.63478,-94.165864
5,47390,"Mountain Home","AR",36.335916,-92.379171
5,47450,"Mountain Pine","AR",34.571426,-93.173951
5,47540,"Mountain View","AR",35.869951,-92.111107
5,47690,"Mount Ida","AR",34.551784,-93.631119
5,47900,"Mount Pleasant","AR",35.982389,-91.77768
5,48020,"Mount Vernon","AR",35.224037,-92.13008
5,48200,"Mulberry","AR",35.508409,-94.074215
5,48290,"Murfreesboro","AR",34.063002,-93.691123
5,48560,"Nashville","AR",33.940923,-93.851622
5,49010,"Newark","AR",35.70534,-91.442858
5,49580,"Newport","AR",35.625546,-91.235159
5,49820,"Nimmons","AR",36.306965,-90.094498
5,50000,"Norfork","AR",36.208327,-92.281996
5,50030,"Norman","AR",34.456677,-93.677786
5,50060,"Norphlet","AR",33.319647,-92.663153
5,50240,"North Crossett","AR",33.1698,-91.936218
5,50450,"North Little Rock","AR",34.7884,-92.255437
5,50810,"Oak Grove","AR",36.459686,-93.435898
5,51060,"Oak Grove Heights","AR",36.12734,-90.51518
5,51080,"Oakhaven","AR",33.72913,-93.619952
5,51290,"Oden","AR",34.620237,-93.785248
5,51350,"Ogden","AR",33.584847,-94.044513
5,51410,"Oil Trough","AR",35.629494,-91.461233
5,51500,"O'Kean","AR",36.167799,-90.817207
5,51530,"Okolona","AR",34.000486,-93.337187
5,51560,"Ola","AR",35.031002,-93.224087
5,52160,"Omaha","AR",36.463215,-93.191876
5,52430,"Oppelo","AR",35.101014,-92.775129
5,52580,"Osceola","AR",35.701277,-89.994498
5,52880,"Oxford","AR",36.207269,-91.919396
5,52940,"Ozan","AR",33.847339,-93.719426
5,52970,"Ozark","AR",35.496243,-93.840504
5,53150,"Palestine","AR",34.970296,-90.905007
5,53240,"Pangburn","AR",35.426167,-91.838669
5,53390,"Paragould","AR",36.056123,-90.513515
5,53480,"Paris","AR",35.288875,-93.724606
5,53510,"Parkdale","AR",33.120779,-91.545842
5,53555,"Parkers-Iron Springs","AR",34.605246,-92.322218
5,53600,"Parkin","AR",35.264471,-90.552454
5,53900,"Patmos","AR",33.511943,-93.566663
5,53990,"Patterson","AR",35.257567,-91.236613
5,54140,"Peach Orchard","AR",36.28094,-90.661931
5,54200,"Pea Ridge","AR",36.450521,-94.115902
5,54620,"Perla","AR",34.364442,-92.778604
5,54650,"Perry","AR",35.044871,-92.793817
5,54680,"Perrytown","AR",33.696509,-93.532593
5,54710,"Perryville","AR",35.008437,-92.80346
5,55130,"Piggott","AR",36.383881,-90.200814
5,55280,"Pindall","AR",36.058345,-92.865268
5,55310,"Pine Bluff","AR",34.2134,-92.018618
5,55580,"Pineville","AR",36.157697,-92.103924
5,55610,"Piney","AR",34.503434,-93.142649
5,55970,"Plainview","AR",34.989464,-93.297644
5,56270,"Pleasant Plains","AR",35.550638,-91.626953
5,56480,"Plumerville","AR",35.160603,-92.641221
5,56540,"Pocahontas","AR",36.263516,-90.968585
5,56600,"Pollard","AR",36.430729,-90.266203
5,56720,"Portia","AR",36.085294,-91.071315
5,56750,"Portland","AR",33.238289,-91.511179
5,56990,"Pottsville","AR",35.238375,-93.058405
5,57050,"Powhatan","AR",36.081938,-91.11892
5,57080,"Poyen","AR",34.322426,-92.642297
5,57125,"Prairie Creek","AR",36.338859,-94.061444
5,57170,"Prairie Grove","AR",35.978251,-94.317521
5,57230,"Prattsville","AR",34.318115,-92.542959
5,57260,"Prescott","AR",33.800696,-93.388
5,57890,"Pyatt","AR",36.25126,-92.844418
5,57950,"Quitman","AR",35.382269,-92.214278
5,58160,"Ratcliff","AR",35.307962,-93.888233
5,58250,"Ravenden","AR",36.236199,-91.250444
5,58280,"Ravenden Springs","AR",36.31458,-91.224049
5,58400,"Reader","AR",33.751794,-93.101221
5,58490,"Rector","AR",36.264242,-90.293344
5,58580,"Redfield","AR",34.441891,-92.183852
5,58880,"Reed","AR",33.701823,-91.44373
5,59180,"Reyno","AR",36.360774,-90.757943
5,59480,"Rison","AR",33.954456,-92.190689
5,60020,"Rockport","AR",34.391874,-92.816267
5,60110,"Rockwell","AR",34.464259,-93.133634
5,60380,"Roe","AR",34.63085,-91.385727
5,60410,"Rogers","AR",36.33125,-94.133449
5,60590,"Rondo","AR",34.65744,-90.820223
5,60770,"Rose Bud","AR",35.330884,-92.078734
5,61040,"Rosston","AR",33.586914,-93.276039
5,61460,"Rudy","AR",35.527133,-94.270298
5,61640,"Russell","AR",35.362079,-91.510371
5,61670,"Russellville","AR",35.271784,-93.140765
5,61940,"St. Charles","AR",34.375773,-91.132934
5,61970,"St. Francis","AR",36.453523,-90.143154
5,62060,"St. Paul","AR",35.823477,-93.764524
5,62150,"Salem","AR",36.371143,-91.823089
5,62210,"Salem","AR",34.629724,-92.555544
5,62240,"Salesville","AR",36.244895,-92.270021
5,62960,"Scranton","AR",35.36026,-93.538476
5,63020,"Searcy","AR",35.24288,-91.73079
5,63110,"Sedgwick","AR",35.978516,-90.863194
5,63470,"Shannon Hills","AR",34.62063,-92.40846
5,63710,"Sheridan","AR",34.309266,-92.405466
5,63740,"Sherrill","AR",34.384715,-91.950703
5,63800,"Sherwood","AR",34.832017,-92.207486
5,63980,"Shirley","AR",35.643695,-92.313387
5,64280,"Sidney","AR",36.004255,-91.658974
5,64370,"Siloam Springs","AR",36.180173,-94.540455
5,64730,"Smackover","AR",33.364593,-92.730822
5,64910,"Smithville","AR",36.080042,-91.302844
5,65480,"South Lead Hill","AR",36.39501,-92.905424
5,65900,"Sparkman","AR",33.917099,-92.848598
5,66080,"Springdale","AR",36.181333,-94.145713
5,66320,"Stamps","AR",33.358658,-93.495704
5,66440,"Star City","AR",33.940972,-91.844364
5,66860,"Stephens","AR",33.420069,-93.067427
5,67250,"Strawberry","AR",35.96557,-91.321442
5,67370,"Strong","AR",33.108043,-92.359374
5,67490,"Stuttgart","AR",34.493522,-91.550915
5,67520,"Subiaco","AR",35.297487,-93.639212
5,67550,"Success","AR",36.454518,-90.722854
5,67730,"Sulphur Rock","AR",35.750991,-91.499305
5,67760,"Sulphur Springs","AR",36.482788,-94.458607
5,67940,"Summit","AR",36.250142,-92.687427
5,68060,"Sunset","AR",35.224658,-90.207601
5,68360,"Swifton","AR",35.824199,-91.128876
5,68660,"Taylor","AR",33.100329,-93.462106
5,68810,"Texarkana","AR",33.450245,-94.015754
5,69050,"Thornton","AR",33.776218,-92.489189
5,69230,"Tillar","AR",33.710186,-91.451695
5,69350,"Tinsman","AR",33.629013,-92.353521
5,69500,"Tollette","AR",33.818038,-93.896082
5,69740,"Tontitown","AR",36.174964,-94.236884
5,69830,"Traskwood","AR",34.451933,-92.666744
5,70010,"Trumann","AR",35.674699,-90.51952
5,70100,"Tuckerman","AR",35.727875,-91.200588
5,70220,"Tull","AR",34.442337,-92.573486
5,70340,"Tupelo","AR",35.391546,-91.229943
5,70430,"Turrell","AR",35.377076,-90.25707
5,70700,"Tyronza","AR",35.490332,-90.358904
5,70760,"Ulm","AR",34.576003,-91.461253
5,71390,"Valley Springs","AR",36.152868,-92.99104
5,71480,"Van Buren","AR",35.44665,-94.352849
5,71510,"Vandervoort","AR",34.379628,-94.364453
5,71900,"Victoria","AR",35.7581,-90.060683
5,71960,"Vilonia","AR",35.084009,-92.211236
5,72140,"Viola","AR",36.396156,-91.984945
5,72230,"Wabbaseka","AR",34.360292,-91.792724
5,72320,"Waldenburg","AR",35.564863,-90.93483
5,72350,"Waldo","AR",33.352467,-93.295324
5,72380,"Waldron","AR",34.899708,-94.093573
5,72890,"Walnut Ridge","AR",36.069829,-90.958349
5,73130,"Ward","AR",35.018859,-91.955031
5,73310,"Warren","AR",33.610137,-92.069666
5,73370,"Washington","AR",33.773148,-93.682958
5,73550,"Watson","AR",33.89358,-91.257366
5,73940,"Weiner","AR",35.619158,-90.902043
5,74000,"Weldon","AR",35.447544,-91.231439
5,74270,"West Crossett","AR",33.144395,-92.019934
5,74330,"Western Grove","AR",36.10112,-92.953922
5,74360,"West Fork","AR",35.932478,-94.182318
5,74450,"West Helena","AR",34.545959,-90.64649
5,74540,"West Memphis","AR",35.149747,-90.182163
5,74660,"West Point","AR",35.204281,-91.61035
5,74840,"Wheatley","AR",34.918793,-91.107304
5,74930,"Whelen Springs","AR",33.831585,-93.12573
5,75170,"White Hall","AR",34.275567,-92.097805
5,75500,"Wickes","AR",34.299734,-94.335223
5,75560,"Widener","AR",35.021963,-90.682438
5,75570,"Wiederkehr Village","AR",35.482373,-93.757319
5,75740,"Williford","AR",36.251381,-91.360705
5,75770,"Willisville","AR",33.518456,-93.294778
5,75860,"Wilmar","AR",33.625916,-91.928969
5,75890,"Wilmot","AR",33.058282,-91.575019
5,75920,"Wilson","AR",35.566168,-90.041929
5,75980,"Wilton","AR",33.738798,-94.147459
5,76010,"Winchester","AR",33.774788,-91.475009
5,76190,"Winslow","AR",35.800937,-94.131694
5,76250,"Winthrop","AR",33.831222,-94.353426
5,76820,"Wooster","AR",35.19888,-92.448299
5,76970,"Wrightsville","AR",34.614014,-92.219905
5,77090,"Wynne","AR",35.231267,-90.788414
5,77330,"Yellville","AR",36.228739,-92.685939
5,77600,"Zinc","AR",36.285314,-92.915255
6,212,"Acton","CA",34.48278,-118.182468
6,296,"Adelanto","CA",34.569658,-117.436906
6,394,"Agoura Hills","CA",34.151019,-118.7598
6,562,"Alameda","CA",37.752767,-122.275886
6,618,"Alamo","CA",37.857067,-121.998635
6,674,"Albany","CA",37.890817,-122.327153
6,884,"Alhambra","CA",34.084,-118.134674
6,947,"Aliso Viejo","CA",33.567541,-117.725305
6,1150,"Alondra Park","CA",33.88955,-118.329974
6,1192,"Alpine","CA",32.842967,-116.761138
6,1290,"Altadena","CA",34.19225,-118.134716
6,1360,"Alta Sierra","CA",39.122861,-121.05261
6,1444,"Alturas","CA",41.491507,-120.545442
6,1514,"Amador City","CA",38.41846,-120.823284
6,1640,"American Canyon","CA",38.1732,-122.261173
6,2000,"Anaheim","CA",33.8389,-117.872331
6,2042,"Anderson","CA",40.449918,-122.294197
6,2112,"Angels","CA",38.075786,-120.54789
6,2168,"Angwin","CA",38.57765,-122.44795
6,2252,"Antioch","CA",37.988733,-121.798891
6,2364,"Apple Valley","CA",34.529346,-117.214164
6,2378,"Aptos","CA",36.991873,-121.899608
6,2382,"Aptos Hills-Larkin Valley","CA",36.960963,-121.830229
6,2420,"Arbuckle","CA",39.016277,-122.060608
6,2462,"Arcadia","CA",34.132167,-118.035692
6,2476,"Arcata","CA",40.867849,-124.080892
6,2553,"Arden-Arcade","CA",38.601098,-121.376691
6,2700,"Armona","CA",36.318018,-119.705896
6,2770,"Arnold","CA",38.232194,-120.369553
6,2812,"Aromas","CA",36.87745,-121.640349
6,2868,"Arroyo Grande","CA",35.12533,-120.583599
6,2896,"Artesia","CA",33.8672,-118.079724
6,2924,"Arvin","CA",35.200284,-118.833705
6,2980,"Ashland","CA",37.6947,-122.115358
6,3064,"Atascadero","CA",35.485484,-120.687924
6,3092,"Atherton","CA",37.45465,-122.202434
6,3162,"Atwater","CA",37.353278,-120.600006
6,3190,"Auberry","CA",37.077805,-119.493624
6,3204,"Auburn","CA",38.891993,-121.07606
6,3209,"August","CA",37.97895,-121.261002
6,3274,"Avalon","CA",33.342918,-118.327386
6,3302,"Avenal","CA",36.029588,-120.114713
6,3344,"Avocado Heights","CA",34.038383,-118.001567
6,3386,"Azusa","CA",34.1381,-117.912256
6,3526,"Bakersfield","CA",35.3577,-119.004553
6,3666,"Baldwin Park","CA",34.0828,-117.970779
6,3820,"Banning","CA",33.937295,-116.892059
6,4030,"Barstow","CA",34.877606,-117.06587
6,4478,"Bayview","CA",40.764984,-124.175941
6,4503,"Bayview-Montalvin","CA",38.001633,-122.322699
6,4541,"Baywood-Los Osos","CA",35.314604,-120.839374
6,4580,"Beale AFB","CA",39.113708,-121.361343
6,4734,"Bear Valley Springs","CA",35.159261,-118.627518
6,4758,"Beaumont","CA",33.931794,-116.978523
6,4870,"Bell","CA",33.97965,-118.178255
6,4982,"Bellflower","CA",33.888133,-118.126632
6,4996,"Bell Gardens","CA",33.967277,-118.152767
6,5108,"Belmont","CA",37.51525,-122.295138
6,5164,"Belvedere","CA",37.87165,-122.468708
6,5290,"Benicia","CA",38.07185,-122.154093
6,5332,"Ben Lomond","CA",37.103361,-122.084478
6,6000,"Berkeley","CA",37.86725,-122.29729
6,6028,"Bermuda Dunes","CA",33.742668,-116.288365
6,6210,"Bethel Island","CA",38.032167,-121.646797
6,6308,"Beverly Hills","CA",34.07925,-118.401368
6,6406,"Big Bear City","CA",34.266342,-116.84553
6,6434,"Big Bear Lake","CA",34.24369,-116.894483
6,6560,"Biggs","CA",39.413933,-121.709232
6,6616,"Big Pine","CA",37.165447,-118.295386
6,6635,"Big River","CA",34.140099,-114.360545
6,6798,"Bishop","CA",37.367696,-118.396804
6,6928,"Blackhawk","CA",37.818283,-121.907347
6,7064,"Bloomington","CA",34.05945,-117.397849
6,7162,"Blue Lake","CA",40.880236,-123.991588
6,7172,"Bluewater","CA",34.174558,-114.270658
6,7218,"Blythe","CA",33.609383,-114.590083
6,7260,"Bodega Bay","CA",38.322798,-123.029788
6,7274,"Bodfish","CA",35.582538,-118.48278
6,7316,"Bolinas","CA",37.9056,-122.696993
6,7379,"Bonadelle Ranchos-Madera","CA",36.959752,-119.895761
6,7414,"Bonita","CA",32.667483,-117.029885
6,7498,"Bonsall","CA",33.283051,-117.219976
6,7525,"Bootjack","CA",37.469708,-119.883104
6,7568,"Boron","CA",35.004921,-117.650339
6,7596,"Borrego Springs","CA",33.238707,-116.354538
6,7624,"Bostonia","CA",32.819757,-116.945731
6,7652,"Boulder Creek","CA",37.1375,-122.127873
6,7848,"Boyes Hot Springs","CA",38.31305,-122.485011
6,7946,"Bradbury","CA",34.15249,-117.968406
6,8058,"Brawley","CA",32.97983,-115.533373
6,8100,"Brea","CA",33.923567,-117.867211
6,8142,"Brentwood","CA",37.933626,-121.708636
6,8310,"Brisbane","CA",37.689317,-122.399928
6,8338,"Broadmoor","CA",37.6917,-122.479566
6,8758,"Buellton","CA",34.625929,-120.201215
6,8786,"Buena Park","CA",33.8577,-118.003274
6,8954,"Burbank","CA",34.191317,-118.325713
6,8968,"Burbank","CA",37.316403,-121.931747
6,9066,"Burlingame","CA",37.5903,-122.362596
6,9122,"Burney","CA",40.884312,-121.668689
6,9332,"Buttonwillow","CA",35.401758,-119.469806
6,9360,"Cabazon","CA",33.911405,-116.771744
6,9710,"Calexico","CA",32.678473,-115.500754
6,9780,"California City","CA",35.189303,-117.811549
6,9864,"Calimesa","CA",33.9959,-117.045148
6,9878,"Calipatria","CA",33.127239,-115.51763
6,9892,"Calistoga","CA",38.58145,-122.581663
6,10046,"Camarillo","CA",34.22255,-119.029434
6,10074,"Cambria","CA",35.546548,-121.079872
6,10088,"Cambrian Park","CA",37.25565,-121.927849
6,10256,"Cameron Park","CA",38.681727,-120.987207
6,10340,"Campbell","CA",37.2788,-121.95335
6,10559,"Camp Pendleton North","CA",33.313998,-117.314552
6,10564,"Camp Pendleton South","CA",33.233315,-117.373547
6,10928,"Canyon Lake","CA",33.683493,-117.253358
6,11040,"Capitola","CA",36.97605,-121.952975
6,11194,"Carlsbad","CA",33.123826,-117.285865
6,11250,"Carmel-by-the-Sea","CA",36.55335,-121.920949
6,11324,"Carmel Valley Village","CA",36.486245,-121.722892
6,11390,"Carmichael","CA",38.63395,-121.318774
6,11446,"Carpinteria","CA",34.3879,-119.513217
6,11530,"Carson","CA",33.836183,-118.257889
6,11614,"Caruthers","CA",36.5418,-119.841688
6,11656,"Casa Conejo","CA",34.183603,-118.9425
6,11691,"Casa de Oro-Mount Helix C","CA",32.765401,-116.938076
6,11964,"Castro Valley","CA",37.71095,-122.061114
6,11978,"Castroville","CA",36.76405,-121.751849
6,12048,"Cathedral City","CA",33.830833,-116.463409
6,12132,"Cayucos","CA",35.437951,-120.884804
6,12468,"Central Valley","CA",40.679596,-122.374912
6,12524,"Ceres","CA",37.599351,-120.956232
6,12552,"Cerritos","CA",33.867603,-118.068402
6,12612,"Challenge-Brownsville","CA",39.461514,-121.258945
6,12669,"Channel Islands Beach","CA",34.15805,-119.222101
6,12734,"Charter Oak","CA",34.1024,-117.853849
6,12902,"Cherryland","CA",37.67935,-122.102268
6,12916,"Cherry Valley","CA",33.97245,-116.965307
6,12930,"Chester","CA",40.300372,-121.233191
6,13014,"Chico","CA",39.753803,-121.806931
6,13210,"Chino","CA",34.0069,-117.685998
6,13214,"Chino Hills","CA",33.974789,-117.748651
6,13294,"Chowchilla","CA",37.115422,-120.256583
6,13392,"Chula Vista","CA",32.62845,-117.044733
6,13560,"Citrus","CA",34.114883,-117.890891
6,13588,"Citrus Heights","CA",38.69165,-121.286669
6,13756,"Claremont","CA",34.12185,-117.715734
6,13882,"Clayton","CA",37.940983,-121.928938
6,13945,"Clearlake","CA",38.958202,-122.631587
6,13966,"Clearlake Oaks","CA",39.022531,-122.665069
6,14190,"Cloverdale","CA",38.799681,-123.017422
6,14218,"Clovis","CA",36.819633,-119.696023
6,14260,"Coachella","CA",33.680933,-116.152291
6,14274,"Coalinga","CA",36.142446,-120.3546
6,14302,"Cobb","CA",38.837819,-122.724147
6,14498,"Colfax","CA",39.095268,-120.953169
6,14736,"Colma","CA",37.673833,-122.45342
6,14890,"Colton","CA",34.0579,-117.322002
6,14904,"Columbia","CA",38.026745,-120.401805
6,14946,"Colusa","CA",39.206097,-122.01133
6,14974,"Commerce","CA",33.995367,-118.150241
6,15044,"Compton","CA",33.89255,-118.226527
6,16000,"Concord","CA",37.97325,-121.99987
6,16035,"Concow","CA",39.745901,-121.493635
6,16224,"Corcoran","CA",36.081844,-119.55999
6,16322,"Corning","CA",39.926338,-122.182001
6,16350,"Corona","CA",33.8679,-117.569693
6,16378,"Coronado","CA",32.630757,-117.173682
6,16434,"Corralitos","CA",36.996633,-121.798644
6,16462,"Corte Madera","CA",37.923615,-122.507319
6,16532,"Costa Mesa","CA",33.66685,-117.912649
6,16560,"Cotati","CA",38.327793,-122.709471
6,16580,"Coto De Caza","CA",33.604119,-117.586042
6,16630,"Cottonwood","CA",40.390318,-122.279978
6,16651,"Country Club","CA",37.968973,-121.339679
6,16728,"Covelo","CA",39.800185,-123.247762
6,16742,"Covina","CA",34.09015,-117.881072
6,17022,"Crescent City","CA",41.754127,-124.19783
6,17030,"Crescent City North","CA",41.763674,-124.214092
6,17162,"Crestline","CA",34.246674,-117.295756
6,17274,"Crockett","CA",38.051076,-122.219432
6,17498,"Cudahy","CA",33.9642,-118.181671
6,17568,"Culver City","CA",34.0058,-118.396116
6,17610,"Cupertino","CA",37.314403,-122.047333
6,17708,"Cutler","CA",36.526687,-119.287222
6,17722,"Cutten","CA",40.767442,-124.141997
6,17750,"Cypress","CA",33.81635,-118.037911
6,17918,"Daly City","CA",37.687,-122.467432
6,17946,"Dana Point","CA",33.457,-117.696337
6,17988,"Danville","CA",37.8144,-121.971381
6,18100,"Davis","CA",38.55495,-121.735946
6,18153,"Day Valley","CA",37.035846,-121.861259
6,18324,"Deer Park","CA",38.532767,-122.468616
6,18352,"Del Aire","CA",33.916083,-118.368633
6,18394,"Delano","CA",35.764844,-119.250428
6,18464,"Delhi","CA",37.43413,-120.776917
6,18506,"Del Mar","CA",32.9649,-117.262449
6,18590,"Del Monte Forest","CA",36.586251,-121.946294
6,18674,"Del Rey","CA",36.65775,-119.595985
6,18688,"Del Rey Oaks","CA",36.592791,-121.837299
6,18856,"Denair","CA",37.529602,-120.800139
6,18996,"Desert Hot Springs","CA",33.959148,-116.50018
6,19052,"Desert View Highlands","CA",34.589749,-118.152606
6,19192,"Diamond Bar","CA",33.999403,-117.814277
6,19220,"Diamond Springs","CA",38.68596,-120.821557
6,19318,"Dinuba","CA",36.545611,-119.38731
6,19339,"Discovery Bay","CA",37.908783,-121.59522
6,19402,"Dixon","CA",38.4447,-121.823749
6,19406,"Dixon Lane-Meadow Creek C","CA",37.387329,-118.412499
6,19455,"Dollar Point","CA",39.189739,-120.108411
6,19584,"Dorris","CA",41.965194,-121.919952
6,19612,"Dos Palos","CA",36.986524,-120.636821
6,19766,"Downey","CA",33.93815,-118.129899
6,19990,"Duarte","CA",34.157833,-117.953118
6,20018,"Dublin","CA",37.715911,-121.909908
6,20242,"Dunsmuir","CA",41.233544,-122.269889
6,20270,"Durham","CA",39.599528,-121.827678
6,20438,"Earlimart","CA",35.880858,-119.270535
6,20536,"East Blythe","CA",33.611706,-114.577309
6,20550,"East Compton","CA",33.8981,-118.194323
6,20598,"East Foothills","CA",37.381133,-121.816431
6,20697,"East Hemet","CA",33.73995,-116.937999
6,20746,"East La Mirada","CA",33.92439,-117.988079
6,20802,"East Los Angeles","CA",34.03265,-118.168562
6,20928,"Easton","CA",36.6517,-119.788869
6,20956,"East Palo Alto","CA",37.46605,-122.132199
6,20984,"East Pasadena","CA",34.13825,-118.076824
6,21012,"East Porterville","CA",36.0574,-118.974699
6,21061,"East Richmond Heights","CA",37.9451,-122.312599
6,21096,"East San Gabriel","CA",34.11985,-118.079696
6,21188,"East Sonora","CA",37.98053,-120.339296
6,21600,"Edwards AFB","CA",34.90962,-117.934573
6,21712,"El Cajon","CA",32.80245,-116.960849
6,21782,"El Centro","CA",32.787145,-115.559374
6,21796,"El Cerrito","CA",37.9205,-122.30207
6,21810,"El Cerrito","CA",33.840133,-117.521899
6,21880,"El Dorado Hills","CA",38.685856,-121.080976
6,21894,"Eldridge","CA",38.335182,-122.506871
6,21936,"El Granada","CA",37.509667,-122.466581
6,22020,"Elk Grove","CA",38.400767,-121.367488
6,22034,"Elkhorn","CA",36.81085,-121.717472
6,22230,"El Monte","CA",34.0748,-118.027797
6,22300,"El Paso de Robles (Paso R","CA",35.632279,-120.664187
6,22370,"El Rio","CA",34.24265,-119.158731
6,22412,"El Segundo","CA",33.910563,-118.424817
6,22454,"El Sobrante","CA",37.97663,-122.292614
6,22468,"El Toro","CA",33.647067,-117.682728
6,22482,"El Toro Station","CA",33.679176,-117.718429
6,22510,"El Verano","CA",38.29774,-122.489391
6,22587,"Emerald Lake Hills","CA",37.4646,-122.266922
6,22594,"Emeryville","CA",37.839083,-122.299343
6,22678,"Encinitas","CA",33.047655,-117.262552
6,22790,"Escalon","CA",37.789488,-120.996215
6,22804,"Escondido","CA",33.136445,-117.07127
6,22846,"Esparto","CA",38.693728,-122.021158
6,22972,"Etna","CA",41.459278,-122.892843
6,23042,"Eureka","CA",40.795319,-124.155679
6,23126,"Exeter","CA",36.294587,-119.143026
6,23168,"Fairfax","CA",37.988633,-122.593828
6,23182,"Fairfield","CA",38.2525,-122.041655
6,23294,"Fair Oaks","CA",38.6485,-121.247178
6,23350,"Fairview","CA",37.678633,-122.04464
6,23462,"Fallbrook","CA",33.3686,-117.237752
6,23616,"Farmersville","CA",36.304148,-119.206868
6,23826,"Felton","CA",37.0427,-122.072192
6,23910,"Ferndale","CA",40.579486,-124.260625
6,23973,"Fetters Hot Springs-Agua","CA",38.322267,-122.479784
6,24092,"Fillmore","CA",34.40016,-118.918476
6,24134,"Firebaugh","CA",36.849218,-120.448936
6,24477,"Florence-Graham","CA",33.96705,-118.244374
6,24498,"Florin","CA",38.49065,-121.404395
6,24638,"Folsom","CA",38.676712,-121.146231
6,24680,"Fontana","CA",34.097733,-117.45734
6,24722,"Foothill Farms","CA",38.677589,-121.346716
6,24764,"Ford City","CA",35.166489,-119.458412
6,24834,"Foresthill","CA",38.999421,-120.832107
6,24960,"Forestville","CA",38.481133,-122.888583
6,25058,"Fort Bragg","CA",39.442277,-123.802906
6,25128,"Fort Jones","CA",41.607051,-122.839824
6,25296,"Fortuna","CA",40.585811,-124.139668
6,25338,"Foster City","CA",37.563806,-122.244666
6,25380,"Fountain Valley","CA",33.7109,-117.950324
6,25436,"Fowler","CA",36.6247,-119.672261
6,25534,"Frazier Park","CA",34.82212,-118.945313
6,25576,"Freedom","CA",36.940033,-121.789321
6,26000,"Fremont","CA",37.528506,-121.997122
6,26028,"French Camp","CA",37.882817,-121.278733
6,27000,"Fresno","CA",36.7806,-119.792874
6,28000,"Fullerton","CA",33.8848,-117.928054
6,28112,"Galt","CA",38.26864,-121.301165
6,28168,"Gardena","CA",33.8936,-118.304849
6,28182,"Garden Acres","CA",37.9639,-121.228317
6,29000,"Garden Grove","CA",33.77875,-117.959375
6,29336,"George AFB","CA",34.581726,-117.366487
6,29399,"Gerber-Las Flores","CA",40.061481,-122.149355
6,29504,"Gilroy","CA",37.0101,-121.57809
6,29644,"Glen Avon","CA",34.01735,-117.487637
6,30000,"Glendale","CA",34.17672,-118.253257
6,30014,"Glendora","CA",34.14605,-117.843941
6,30028,"Glen Ellen","CA",38.3558,-122.538362
6,30156,"Glenshire-Devonshire","CA",39.350502,-120.087529
6,30282,"Golden Hills","CA",35.142495,-118.489348
6,30392,"Gonzales","CA",36.50653,-121.442551
6,30658,"Grand Terrace","CA",34.030567,-117.314481
6,30703,"Granite Hills","CA",32.803,-116.903759
6,30798,"Grass Valley","CA",39.22146,-121.05667
6,30812,"Graton","CA",38.4377,-122.865271
6,30938,"Greenacres","CA",35.383459,-119.125744
6,30994,"Greenfield","CA",36.321675,-121.242393
6,31162,"Greenville","CA",40.13576,-120.937881
6,31260,"Gridley","CA",39.364373,-121.695158
6,31375,"Groveland-Big Oak Flat CD","CA",37.845543,-120.196422
6,31400,"Grover City","CA",35.120958,-120.618527
6,31414,"Guadalupe","CA",34.963509,-120.574683
6,31470,"Guerneville","CA",38.508058,-122.984863
6,31568,"Gustine","CA",37.252508,-120.993198
6,31596,"Hacienda Heights","CA",33.99575,-117.971372
6,31708,"Half Moon Bay","CA",37.470116,-122.436896
6,31890,"Hamilton City","CA",39.742271,-122.011657
6,31960,"Hanford","CA",36.32504,-119.646935
6,32044,"Harbison Canyon","CA",32.819371,-116.829472
6,32506,"Hawaiian Gardens","CA",33.83045,-118.071874
6,32548,"Hawthorne","CA",33.91465,-118.347049
6,32562,"Hayfork","CA",40.573872,-123.125268
6,33000,"Hayward","CA",37.627667,-122.104602
6,33056,"Healdsburg","CA",38.618497,-122.862762
6,33084,"Heber","CA",32.734137,-115.520123
6,33182,"Hemet","CA",33.731603,-116.997758
6,33308,"Hercules","CA",38.020433,-122.296894
6,33364,"Hermosa Beach","CA",33.85167,-118.422709
6,33434,"Hesperia","CA",34.419075,-117.302401
6,33518,"Hidden Hills","CA",34.167552,-118.659997
6,33532,"Hidden Meadows","CA",33.225153,-117.111703
6,33549,"Hidden Valley Lake","CA",38.808482,-122.517282
6,33574,"Highgrove","CA",34.014548,-117.328035
6,33588,"Highland","CA",34.1173,-117.189141
6,33632,"Highlands","CA",37.5199,-122.342779
6,33798,"Hillsborough","CA",37.55755,-122.356241
6,33861,"Hilmar-Irwin","CA",37.405598,-120.850608
6,34120,"Hollister","CA",36.855501,-121.399055
6,34246,"Holtville","CA",32.813668,-115.377342
6,34281,"Home Garden","CA",36.303319,-119.635254
6,34302,"Home Gardens","CA",33.8809,-117.513154
6,34316,"Homeland","CA",33.748467,-117.108576
6,34904,"Hughson","CA",37.601001,-120.8667
6,34928,"Humboldt Hill","CA",40.726199,-124.18856
6,36000,"Huntington Beach","CA",33.691755,-118.008115
6,36056,"Huntington Park","CA",33.9803,-118.215149
6,36084,"Huron","CA",36.203342,-120.095367
6,36126,"Hydesville","CA",40.548669,-124.087099
6,36203,"Idyllwild-Pine Cove","CA",33.747262,-116.723161
6,36280,"Imperial","CA",32.840509,-115.571025
6,36294,"Imperial Beach","CA",32.5702,-117.118599
6,36434,"Indian Wells","CA",33.705396,-116.340565
6,36448,"Indio","CA",33.7198,-116.228649
6,36490,"Industry","CA",34.0134,-117.921535
6,36546,"Inglewood","CA",33.95585,-118.343649
6,36613,"Interlaken","CA",36.951378,-121.732857
6,36616,"Inverness","CA",38.08507,-122.841089
6,36672,"Ione","CA",38.359575,-120.941374
6,36770,"Irvine","CA",33.662114,-117.795807
6,36826,"Irwindale","CA",34.111933,-117.967557
6,36868,"Isla Vista","CA",34.4161,-119.856749
6,36882,"Isleton","CA",38.161394,-121.604257
6,36910,"Ivanhoe","CA",36.389309,-119.218685
6,36980,"Jackson","CA",38.3505,-120.77352
6,37106,"Jamestown","CA",37.957312,-120.413861
6,37120,"Jamul","CA",32.720238,-116.888775
6,37554,"Joshua Tree","CA",34.12695,-116.317756
6,37582,"Julian","CA",33.073116,-116.587389
6,38044,"Kelseyville","CA",38.958092,-122.824467
6,38086,"Kensington","CA",37.908233,-122.277319
6,38114,"Kentfield","CA",37.950317,-122.547408
6,38226,"Kerman","CA",36.724169,-120.061033
6,38310,"Kernville","CA",35.761605,-118.430066
6,38394,"Kettleman City","CA",36.008697,-119.961919
6,38422,"Keyes","CA",37.564183,-120.917407
6,38520,"King City","CA",36.21298,-121.128224
6,38548,"Kings Beach","CA",39.248111,-120.017701
6,38562,"Kingsburg","CA",36.5195,-119.554794
6,38702,"Klamath","CA",41.52252,-123.996561
6,39003,"La Canada Flintridge","CA",34.21055,-118.200441
6,39045,"La Crescenta-Montrose","CA",34.23385,-118.235207
6,39108,"Ladera Heights","CA",33.99405,-118.374499
6,39122,"Lafayette","CA",37.893833,-122.117915
6,39173,"Laguna","CA",38.421129,-121.422661
6,39178,"Laguna Beach","CA",33.5399,-117.760721
6,39220,"Laguna Hills","CA",33.599767,-117.710878
6,39248,"Laguna Niguel","CA",33.526533,-117.704318
6,39283,"Lagunitas-Forest Knolls C","CA",38.015233,-122.687599
6,39290,"La Habra","CA",33.9274,-117.950599
6,39304,"La Habra Heights","CA",33.962033,-117.950291
6,39444,"Lake Arrowhead","CA",34.262276,-117.188543
6,39486,"Lake Elsinore","CA",33.668985,-117.321481
6,39570,"Lake Isabella","CA",35.615154,-118.46572
6,39598,"Lakeland Village","CA",33.638291,-117.344827
6,39612,"Lake Los Angeles","CA",34.611896,-117.826891
6,39670,"Lake Nacimiento","CA",35.72846,-120.878545
6,39690,"Lake Of The Pines","CA",39.038675,-121.060297
6,39710,"Lakeport","CA",39.042281,-122.919875
6,39724,"Lake San Marcos","CA",33.119057,-117.209133
6,39766,"Lakeside","CA",32.849043,-116.909924
6,39836,"Lakeview","CA",33.828088,-117.123818
6,39892,"Lakewood","CA",33.8488,-118.122049
6,40004,"La Mesa","CA",32.7696,-117.01887
6,40032,"La Mirada","CA",33.902117,-118.008766
6,40088,"Lamont","CA",35.264088,-118.914015
6,40130,"Lancaster","CA",34.693064,-118.176425
6,40256,"La Palma","CA",33.85085,-118.038699
6,40340,"La Puente","CA",34.0325,-117.95225
6,40354,"La Quinta","CA",33.67136,-116.292241
6,40410,"La Riviera","CA",38.566867,-121.35571
6,40426,"Larkfield-Wikiup","CA",38.513386,-122.752478
6,40438,"Larkspur","CA",37.94115,-122.529154
6,40592,"Las Lomas","CA",36.8688,-121.73098
6,40704,"Lathrop","CA",37.8209,-121.276624
6,40746,"Laton","CA",36.43395,-119.68888
6,40830,"La Verne","CA",34.118233,-117.770949
6,40886,"Lawndale","CA",33.88835,-118.352649
6,40928,"Laytonville","CA",39.674675,-123.495218
6,41040,"Le Grand","CA",37.219121,-120.260538
6,41124,"Lemon Grove","CA",32.7334,-117.032841
6,41152,"Lemoore","CA",36.298625,-119.787481
6,41166,"Lemoore Station","CA",36.26441,-119.90374
6,41180,"Lennox","CA",33.9398,-118.357651
6,41194,"Lenwood","CA",34.885777,-117.103606
6,41278,"Lewiston","CA",40.699233,-122.802019
6,41282,"Lexington Hills","CA",37.164833,-121.971842
6,41474,"Lincoln","CA",38.89917,-121.316491
6,41558,"Lincoln Village","CA",38.0042,-121.333485
6,41572,"Linda","CA",39.122847,-121.55472
6,41670,"Linden","CA",38.018867,-121.099938
6,41712,"Lindsay","CA",36.206261,-119.088848
6,41880,"Littlerock","CA",34.52508,-117.984751
6,41922,"Live Oak","CA",36.9837,-121.979536
6,41936,"Live Oak","CA",39.273598,-121.661287
6,41992,"Livermore","CA",37.691926,-121.763663
6,42006,"Livingston","CA",37.388026,-120.721484
6,42104,"Lockeford","CA",38.151554,-121.15554
6,42202,"Lodi","CA",38.12325,-121.294424
6,42370,"Loma Linda","CA",34.04415,-117.249034
6,42412,"Loma Rica","CA",39.318711,-121.400357
6,42468,"Lomita","CA",33.7934,-118.317249
6,42524,"Lompoc","CA",34.660557,-120.469639
6,42566,"London","CA",36.480954,-119.443015
6,42580,"Lone Pine","CA",36.574949,-118.08391
6,43000,"Long Beach","CA",33.7889,-118.159824
6,43140,"Loomis","CA",38.809688,-121.194345
6,43224,"Los Alamitos","CA",33.798567,-118.058087
6,43280,"Los Altos","CA",37.369167,-122.095482
6,43294,"Los Altos Hills","CA",37.36795,-122.139327
6,44000,"Los Angeles","CA",34.112101,-118.411201
6,44028,"Los Banos","CA",37.064177,-120.835295
6,44112,"Los Gatos","CA",37.230695,-121.959772
6,44140,"Los Molinos","CA",40.02764,-122.097152
6,44266,"Los Serranos","CA",33.9738,-117.703099
6,44280,"Lost Hills","CA",35.623357,-119.693506
6,44350,"Lower Lake","CA",38.911202,-122.610256
6,44364,"Loyalton","CA",39.676642,-120.243352
6,44378,"Loyola","CA",37.35145,-122.099453
6,44399,"Lucas Valley-Marinwood CD","CA",38.0352,-122.565489
6,44406,"Lucerne","CA",39.094232,-122.809886
6,44574,"Lynwood","CA",33.9237,-118.201393
6,44784,"McCloud","CA",41.254804,-122.135206
6,44826,"McFarland","CA",35.679071,-119.235579
6,44910,"McKinleyville","CA",40.953314,-124.115608
6,45022,"Madera","CA",36.967579,-120.076718
6,45050,"Madera Acres","CA",37.019221,-120.065872
6,45120,"Magalia","CA",39.827519,-121.6108
6,45358,"Mammoth Lakes","CA",37.627817,-118.990181
6,45400,"Manhattan Beach","CA",33.895093,-118.421281
6,45484,"Manteca","CA",37.802328,-121.223474
6,45680,"March AFB","CA",33.891333,-117.263874
6,45736,"Maricopa","CA",35.059689,-119.401433
6,45778,"Marina","CA",36.68275,-121.790833
6,45806,"Marina del Rey","CA",33.980333,-118.451077
6,45932,"Mariposa","CA",37.488534,-119.966532
6,46114,"Martinez","CA",38.00075,-122.114526
6,46170,"Marysville","CA",39.151624,-121.582255
6,46254,"Mather AFB","CA",38.548433,-121.277199
6,46436,"Mayflower Village","CA",34.11495,-118.008949
6,46492,"Maywood","CA",33.9891,-118.187726
6,46632,"Meadow Vista","CA",39.003967,-121.030723
6,46660,"Mecca","CA",33.575894,-116.071713
6,46702,"Meiners Oaks","CA",34.450401,-119.272133
6,46828,"Mendota","CA",36.757599,-120.378905
6,46870,"Menlo Park","CA",37.48,-122.144037
6,46884,"Mentone","CA",34.06295,-117.122774
6,46898,"Merced","CA",37.296274,-120.484357
6,47486,"Millbrae","CA",37.5991,-122.400995
6,47710,"Mill Valley","CA",37.907967,-122.54098
6,47766,"Milpitas","CA",37.4346,-121.891946
6,47976,"Mira Loma","CA",33.9846,-117.512733
6,48046,"Mira Monte","CA",34.427982,-119.2828
6,48186,"Mission Hills","CA",34.685999,-120.43584
6,48256,"Mission Viejo","CA",33.612417,-117.651626
6,48298,"Mi-Wuk Village","CA",38.057998,-120.176345
6,48354,"Modesto","CA",37.659799,-120.993923
6,48452,"Mojave","CA",35.052079,-118.179809
6,48641,"Mono Vista","CA",38.011478,-120.269652
6,48648,"Monrovia","CA",34.163385,-117.990416
6,48690,"Montague","CA",41.727457,-122.52958
6,48760,"Montara","CA",37.5454,-122.497194
6,48788,"Montclair","CA",34.072784,-117.69656
6,48816,"Montebello","CA",34.0155,-118.109999
6,48872,"Monterey","CA",36.60135,-121.88176
6,48914,"Monterey Park","CA",34.046833,-118.130565
6,48928,"Monte Rio","CA",38.465267,-123.012333
6,48956,"Monte Sereno","CA",37.23825,-121.988574
6,49138,"Moorpark","CA",34.285088,-118.877564
6,49180,"Morada","CA",38.03873,-121.244722
6,49194,"Moraga Town","CA",37.84385,-122.123425
6,49270,"Moreno Valley","CA",33.92623,-117.210311
6,49278,"Morgan Hill","CA",37.13055,-121.639638
6,49348,"Morongo Valley","CA",34.063888,-116.591763
6,49362,"Morro Bay","CA",35.367406,-120.866294
6,49446,"Moss Beach","CA",37.5218,-122.505604
6,49600,"Mountain Mesa","CA",35.627489,-118.406054
6,49670,"Mountain View","CA",37.402,-122.077641
6,49684,"Mountain View Acres","CA",34.496782,-117.34795
6,49852,"Mount Shasta","CA",41.3225,-122.314716
6,50034,"Murphys","CA",38.151953,-120.460894
6,50076,"Murrieta","CA",33.559673,-117.209601
6,50090,"Murrieta Hot Springs","CA",33.565088,-117.150758
6,50132,"Muscoy","CA",34.15235,-117.345674
6,50188,"Myrtletown","CA",40.788961,-124.129083
6,50258,"Napa","CA",38.297933,-122.299907
6,50398,"National City","CA",32.66605,-117.098502
6,50706,"Nebo Center","CA",34.871567,-116.955593
6,50734,"Needles","CA",34.814126,-114.613217
6,50874,"Nevada City","CA",39.260358,-121.021246
6,50916,"Newark","CA",37.519267,-122.030504
6,51140,"Newman","CA",37.315101,-121.021437
6,51182,"Newport Beach","CA",33.61405,-117.909409
6,51294,"Nice","CA",39.125284,-122.85051
6,51392,"Niland","CA",33.23854,-115.513108
6,51476,"Nipomo","CA",35.032363,-120.482977
6,51560,"Norco","CA",33.92546,-117.551199
6,51637,"North Auburn","CA",38.931272,-121.08071
6,51812,"North Edwards","CA",35.019101,-117.830274
6,51820,"North El Monte","CA",34.1029,-118.023351
6,51840,"North Fair Oaks","CA",37.4745,-122.201774
6,51924,"North Highlands","CA",38.66765,-121.380409
6,52526,"Norwalk","CA",33.9069,-118.082499
6,52582,"Novato","CA",38.0921,-122.55671
6,52624,"Nuevo","CA",33.806915,-117.136994
6,52694,"Oakdale","CA",37.768201,-120.85185
6,52764,"Oakhurst","CA",37.333328,-119.647006
6,53000,"Oakland","CA",37.771544,-122.22455
6,53070,"Oakley","CA",37.986485,-121.716026
6,53116,"Oak Park","CA",34.171488,-118.755479
6,53182,"Oak View","CA",34.399669,-119.295454
6,53266,"Occidental","CA",38.395402,-122.937871
6,53294,"Oceano","CA",35.101778,-120.608751
6,53322,"Oceanside","CA",33.225074,-117.310286
6,53448,"Oildale","CA",35.4235,-119.027899
6,53476,"Ojai","CA",34.449085,-119.245717
6,53714,"Olivehurst","CA",39.08432,-121.547506
6,53896,"Ontario","CA",34.054412,-117.60581
6,53924,"Opal Cliffs","CA",36.9552,-121.974739
6,53980,"Orange","CA",33.80525,-117.823999
6,54008,"Orange Cove","CA",36.62245,-119.317449
6,54092,"Orangevale","CA",38.688258,-121.217331
6,54232,"Orinda","CA",37.880917,-122.177338
6,54274,"Orland","CA",39.745725,-122.187226
6,54358,"Orosi","CA",36.542499,-119.287859
6,54386,"Oroville","CA",39.501618,-121.565935
6,54388,"Oroville East","CA",39.513534,-121.477427
6,54652,"Oxnard","CA",34.197426,-119.213695
6,54764,"Pacheco","CA",37.987567,-122.062303
6,54806,"Pacifica","CA",37.61125,-122.47632
6,54848,"Pacific Grove","CA",36.6228,-121.925065
6,55044,"Pajaro","CA",36.9001,-121.740859
6,55086,"Palermo","CA",39.436664,-121.53054
6,55156,"Palmdale","CA",34.605384,-118.086271
6,55170,"Palmdale East","CA",34.581928,-118.071831
6,55184,"Palm Desert","CA",33.733242,-116.375392
6,55187,"Palm Desert Country","CA",33.740577,-116.314654
6,55254,"Palm Springs","CA",33.77575,-116.528788
6,55282,"Palo Alto","CA",37.3992,-122.139354
6,55380,"Palos Verdes Estates","CA",33.787767,-118.396203
6,55520,"Paradise","CA",39.756412,-121.604334
6,55618,"Paramount","CA",33.89555,-118.164074
6,55751,"Parksdale","CA",36.947219,-120.021905
6,55837,"Parkway-South Sacramento","CA",38.50855,-121.451949
6,55842,"Parkwood","CA",36.926818,-120.043582
6,55856,"Parlier","CA",36.6085,-119.538184
6,56000,"Pasadena","CA",34.1607,-118.138724
6,56112,"Patterson","CA",37.474251,-121.1276
6,56350,"Pedley","CA",33.976733,-117.470649
6,56518,"Penn Valley","CA",39.196169,-121.189948
6,56700,"Perris","CA",33.793015,-117.223058
6,56784,"Petaluma","CA",38.24115,-122.625455
6,56871,"Phoenix Lake-Cedar Ridge","CA",38.023159,-120.300745
6,56924,"Pico Rivera","CA",33.9898,-118.088276
6,56938,"Piedmont","CA",37.82285,-122.228903
6,57204,"Pine Hills","CA",40.733455,-124.151114
6,57260,"Pine Valley","CA",32.85542,-116.501194
6,57288,"Pinole","CA",38.012133,-122.315474
6,57372,"Piru","CA",34.407301,-118.798748
6,57414,"Pismo Beach","CA",35.135958,-120.677005
6,57456,"Pittsburg","CA",38.01815,-121.88947
6,57512,"Pixley","CA",35.972878,-119.287173
6,57526,"Placentia","CA",33.881567,-117.854773
6,57540,"Placerville","CA",38.730232,-120.795661
6,57582,"Planada","CA",37.2881,-120.323277
6,57764,"Pleasant Hill","CA",37.95365,-122.074186
6,57792,"Pleasanton","CA",37.67245,-121.889069
6,57834,"Plymouth","CA",38.478405,-120.844794
6,57876,"Point Arena","CA",38.911447,-123.690721
6,57897,"Point Dume","CA",34.014608,-118.801771
6,58030,"Pollock Pines","CA",38.752135,-120.570574
6,58072,"Pomona","CA",34.05895,-117.761399
6,58191,"Poplar-Cotton Center","CA",36.056742,-119.146415
6,58240,"Porterville","CA",36.064567,-119.026952
6,58296,"Port Hueneme","CA",34.162088,-119.203429
6,58352,"Portola","CA",39.804874,-120.46764
6,58356,"Portola Hills","CA",33.683652,-117.631991
6,58380,"Portola Valley","CA",37.37175,-122.218495
6,58520,"Poway","CA",32.98545,-117.017949
6,58870,"Prunedale","CA",36.799862,-121.656367
6,58982,"Quail Valley","CA",33.705394,-117.252078
6,59052,"Quartz Hill","CA",34.652216,-118.214898
6,59087,"Quincy-East Quincy","CA",39.923474,-120.923751
6,59248,"Rainbow","CA",33.4052,-117.147484
6,59346,"Ramona","CA",33.03615,-116.870051
6,59444,"Rancho Cordova","CA",38.5954,-121.300248
6,59451,"Rancho Cucamonga","CA",34.123831,-117.570239
6,59500,"Rancho Mirage","CA",33.757981,-116.425561
6,59506,"Rancho Murieta","CA",38.520448,-121.060182
6,59514,"Rancho Palos Verdes","CA",33.7582,-118.363006
6,59542,"Rancho Rinconada","CA",37.315,-122.001835
6,59550,"Rancho San Diego","CA",32.74725,-116.934481
6,59587,"Rancho Santa Margarita CD","CA",33.640695,-117.602178
6,59892,"Red Bluff","CA",40.173752,-122.240366
6,59920,"Redding","CA",40.5724,-122.364918
6,59962,"Redlands","CA",34.0579,-117.170852
6,60018,"Redondo Beach","CA",33.8565,-118.376174
6,60088,"Redway","CA",40.117712,-123.819356
6,60102,"Redwood City","CA",37.516428,-122.205943
6,60242,"Reedley","CA",36.6004,-119.448299
6,60466,"Rialto","CA",34.113567,-117.387023
6,60606,"Richgrove","CA",35.796724,-119.105718
6,60620,"Richmond","CA",37.95135,-122.360939
6,60704,"Ridgecrest","CA",35.631004,-117.6611
6,60900,"Rio Dell","CA",40.500822,-124.10633
6,60928,"Rio del Mar","CA",36.957844,-121.883838
6,60942,"Rio Linda","CA",38.6876,-121.458181
6,60984,"Rio Vista","CA",38.165067,-121.694679
6,61026,"Ripon","CA",37.73505,-121.126452
6,61068,"Riverbank","CA",37.73281,-120.945099
6,61096,"Riverdale","CA",36.4308,-119.865977
6,62000,"Riverside","CA",33.940437,-117.397363
6,62364,"Rocklin","CA",38.8024,-121.24027
6,62490,"Rodeo","CA",38.045467,-122.237698
6,62546,"Rohnert Park","CA",38.347767,-122.697672
6,62602,"Rolling Hills","CA",33.76175,-118.341798
6,62644,"Rolling Hills Estates cit","CA",33.782589,-118.35206
6,62756,"Romoland","CA",33.744629,-117.171728
6,62826,"Rosamond","CA",34.860184,-118.199499
6,62854,"Rosedale","CA",35.394464,-119.203533
6,62868,"Roseland","CA",38.4215,-122.724872
6,62896,"Rosemead","CA",34.06885,-118.081874
6,62910,"Rosemont","CA",38.547173,-121.350802
6,62938,"Roseville","CA",38.759812,-121.293695
6,62980,"Ross","CA",37.96185,-122.56062
6,63050,"Rossmoor","CA",33.7895,-118.078898
6,63218,"Rowland Heights","CA",33.9798,-117.891416
6,63260,"Rubidoux","CA",33.995467,-117.421174
6,63316,"Running Springs","CA",34.209738,-117.113496
6,64000,"Sacramento","CA",38.56685,-121.46736
6,64140,"St. Helena","CA",38.5047,-122.465723
6,64210,"Salida","CA",37.70845,-121.084792
6,64224,"Salinas","CA",36.684833,-121.635081
6,64420,"San Andreas","CA",38.189312,-120.674608
6,64434,"San Anselmo","CA",37.9826,-122.568887
6,64462,"San Antonio Heights","CA",34.154333,-117.658434
6,65000,"San Bernardino","CA",34.13975,-117.292299
6,65028,"San Bruno","CA",37.624817,-122.428015
6,65042,"San Buenaventura (Ventura","CA",34.2659,-119.258366
6,65070,"San Carlos","CA",37.497633,-122.267365
6,65084,"San Clemente","CA",33.447211,-117.611068
6,65112,"Sand City","CA",36.648633,-121.844715
6,66000,"San Diego","CA",32.81495,-117.13577
6,66004,"San Diego Country Estates","CA",33.006571,-116.782835
6,66070,"San Dimas","CA",34.10905,-117.807199
6,66140,"San Fernando","CA",34.2895,-118.43499
6,67000,"San Francisco","CA",37.79325,-122.554783
6,67042,"San Gabriel","CA",34.0947,-118.097599
6,67056,"Sanger","CA",36.700233,-119.553193
6,67112,"San Jacinto","CA",33.792655,-116.964224
6,67126,"San Joaquin","CA",36.606936,-120.186935
6,68000,"San Jose","CA",37.304,-121.849783
6,68014,"San Juan Bautista","CA",36.84596,-121.537056
6,68028,"San Juan Capistrano","CA",33.50164,-117.652632
6,68084,"San Leandro","CA",37.70465,-122.160756
6,68112,"San Lorenzo","CA",37.67505,-122.130114
6,68154,"San Luis Obispo","CA",35.272866,-120.66481
6,68196,"San Marcos","CA",33.136633,-117.173109
6,68224,"San Marino","CA",34.12265,-118.112061
6,68238,"San Martin","CA",37.08495,-121.606315
6,68252,"San Mateo","CA",37.561267,-122.312019
